cb_station_id,cb_station_name,cb_latitude,cb_longitude,cb_bike_num
72bfd647b3d2b650546f42319729757d,Cégep Marie-Victorin,45.617499783128075,-73.60601127147675,11
36c6491aa1b52e5ef7005f984738de27,Gare d'autocars de Montréal (Berri / Ontario),45.516926210319546,-73.56425732374191,15
8db822a266b5ccb3a1e323ddc8721d62,Ateliers municipaux de St-Laurent (Cavendish / Poirier),45.506175841460966,-73.71118605136871,19
660275cd7d4368cc7590f1606c633bd6,Place Rodolphe-Rousseau (Gohier / Édouard-Laurin),45.5129938566323,-73.68249848484993,25
fddada5adc997290212b3f540c017274,Centre des loisirs (Tassé / Grenet),45.51473429416659,-73.69144901633263,15
83d02cd8a043b8305a4031063005d32e,Parc Marlborough (Beauzèle / Robichaud),45.52234149817879,-73.72167885303497,15
888e6052f1aebab8d8a527776b3499b6,Champdoré / de Lorimier,45.566869345371856,-73.64101678133011,15
f3e8bbaffc3930bc19681467b42595cf,Beurling / Godin,45.44791581215845,-73.58381867408752,19
1ffa6ec805ef0a7803b86fa6bef5c1af,Kirkfield / de Chambois,45.51293324107222,-73.63389015197754,27
65fcf6251f8e1caef9d4ec19d3c37f64,Parc des Rapides (LaSalle / 6e avenue),45.42947143740888,-73.59309915918857,23
17a401a4d9de7e987b12cbc5686cadc2,Métro Longueuil - Université de Sherbrooke,45.52331869398737,-73.52012693881989,35
6832a18f263cc93c01c71013a19baa8f,St-Charles / Montarville,45.53368199320325,-73.51526074111462,15
04840a5047543df6a5ff4f78ccc64a04,Collège Édouard-Montpetit (de Gentilly / de Normandie),45.53722603812578,-73.49506705999374,19
2a20aa1c87cc30a2968fe04fe4e5b0df,Place Longueuil,45.52841043752244,-73.51716578006744,15
734e36f9bfc759c9c5b1b9b44a85966e,Place du Commerce,45.46714,-73.54259,33
65f5707d61306518123222b4680bc282,Marché Maisonneuve,45.55321884238814,-73.53978216648102,22
a7671fb398de9ac6bd6bc552b5323b7a,Parc Kent (de Kent / Hudson),45.5057209331225,-73.62945914268494,27
0e58810dea9e4869279089cb8576642f,Rachel / de Brébeuf,45.52689,-73.57264,29
5f87ab3bfe9c4289033da69a74957d0e,Aréna Rodrigue-Gilbert (du Tricentenaire / de Montigny),45.65140583915357,-73.50041270256041,15
23f1b244e618444f565f402a81c585d6,Parc St-Laurent (Salk / Thomas-Chapais),45.6062348,-73.6287838,19
3cc8af25d891cb13e3301e4a612d0383,Notre-Dame / St-Gabriel,45.50714391928411,-73.55511903762817,15
517c47dab7563036263420e5eb1526a6,Casino de Montréal,45.5063732,-73.52457672,34
4c422c0fa82a3c9954a411ba87f52901,La Ronde,45.52156536710626,-73.53533238172531,23
dbe6f3be853e1100918aa06b6418eb86,U. Concordia - Campus Loyola (Sherbrooke / West Broadway),45.45750908083069,-73.6394852399826,27
d45cc49cea4480b9116b1363dcc5355d,Parc Labelle (LaSalle / Henri-Duhamel),45.47256100297732,-73.56998920440674,19
bfbe27bd89264f5821d6d0c7f0d2e765,des Ormeaux / de Grosbois,45.605901731906485,-73.53436946868896,15
3dee6dd50b00ebe97be68a34fa0c1590,Parc Reine-Élizabeth (Penniston / Crawford),45.43914465255811,-73.59173655509949,15
9f8b5a5097e54b755691624a27a320a0,Parc de la Confédération (Fielding / West Hill),45.471881993586074,-73.64002168178558,23
eeda0f4010f34ca2199f3585a76fef66,Bibliothèque d'Ahuntsic (Lajeunesse / Fleury),45.5534000891078,-73.66225451231003,15
1f96d87b02f5ddf8831c2d5f2473b0a8,Centre ÉPIC (St-Zotique / 40e avenue),45.57414703721992,-73.57462137937546,23
9575da078eee4b025a4c319fc2347b0d,Bélanger / des Galeries d'Anjou,45.59722114932571,-73.56279015541077,19
8140fc3c3486abf913b0bd9211926f2b,Cité des Arts du Cirque (Paul Boutet / des Regrattiers),45.55984236120471,-73.61544728279114,34
1461a02f003268b78a89d6ad0ac551dd,Rosemont / Viau,45.56833021674857,-73.56666326522826,23
cebdd81cd194840f09e6c07f1f7198a4,Parc Stoney-Point (St-Joseph / 47e avenue),45.43656827071224,-73.70836973190308,19
0217b73736addb107209816f03000a18,Parc LaSalle (10e avenue / Victoria),45.43805550384184,-73.67273926734924,19
6866c654a6dbffa8186d1495a5ebea63,Elgar / de l'Île-des-Sœurs,45.45682318753668,-73.546804189682,14
ff85c138d884da9a4540f32b12086338,St-Jacques / des Seigneurs,45.489185716082275,-73.57190027832984,23
2203b1d78848ffe20d0ed9d29d7dce2e,O'Brien / Poirier,45.52252484113786,-73.69143962860107,21
f6b224af771e55d8ded0206097c994c0,Thimens / Alexis-Nihon,45.50897852206792,-73.69856357574463,27
ce9dbfc9842d2eff631cf5898df68683,Parc Van Horne (de la Peltrie / de Westbury),45.490494421832885,-73.63852232694626,15
389a103b106275a594cb7caafbf34e27,Hôpital Sacré-Coeur (Forbes),45.531943590076395,-73.71360540390015,13
567cbde732fdd0fb13d545dd1b5e963c,Atwater / Greene,45.480495143306044,-73.57782661914825,25
3557bec6e2c20690d2c912e713edad35,Mairie d'arrondissement Montréal-Nord (Hébert / de Charleroi),45.59398503487043,-73.63767206668854,21
e287c24d95d9f0e3767d167d83ecebcd,Omer-Lavallée / du Midway,45.5457759528664,-73.56217458844185,18
4cb50bc7e3ed79928cef296e135b1e84,Parc Noel-Nord (Toupin / Keller),45.51758306374252,-73.72661411762238,19
a44871a432bc65d33bfb1ed04dab02ca,Parc du Bois-Franc (de l'Équateur / des Andes),45.51317758246596,-73.71306091547012,19
7b71605bd83572e8804e860f434f1055,Parc Grovehill (St-Antoine / Ivan-Franko),45.43982382100397,-73.69487822055817,15
10a32e00bc65e9fb33eef10d6e3e75e9,Bibliothèque Jean-Corbeil (Goncourt / Place Montrichard),45.6027276,-73.5579303,11
79817ddade43d27901df8f29feaebc39,Aréna Chaumont (Chaumont / des Ormeaux),45.610926628992026,-73.54673445224762,19
a75f61cc35fc749366c8e6ef816fb8a0,Parc Chamberland (Dorais / de l'Église),45.502989,-73.689113,19
abd3530a2acf6d587950005b613d40cb,Parc Summerlea (53e avenue / St-Joseph),45.43836713933041,-73.71546685695648,15
b77888871c6837a551022c5c739042ac,Parc Kirkland (des Érables / Boyer),45.44606092178209,-73.65079946815968,15
5782e71fd4ba8263a67de59b093dc320,William / Robert-Bourassa,45.49716534003792,-73.55933010578154,21
d8bf2d80c73cf09dbfd6b7f76d063424,Quai de la navette fluviale,45.51366626207095,-73.53842496871948,19
d0fc3a82ee0af511ffda9618f1263b84,Lapierre / Serge,45.43854405099729,-73.62021625041962,15
efd89dd6cc7db7e7ea67a4ccb75372a1,Parc St-Louis (St-Joseph / 34e avenue),45.432839840726125,-73.69349151849747,23
4e1cd6aa776d6e4078886c39f454b29f,Victoria / 18e avenue Lachine,45.43579350588776,-73.6801904439926,15
d9fdeeb4d94f016bff5cd776466d6a30,Métro Jolicoeur (de Sève / Drake),45.45608545783109,-73.58193710446358,19
ab865ab695ca69089498736e6bac9a16,Duchesneau / de Marseille,45.60962627826218,-73.52273898082785,19
a0166a9345b73dbd0b09f883e665a8f8,Papineau / Émile-Journault,45.55988367688166,-73.63356828689575,35
c91d47b7a498fe1a3016800f0678f419,LaSalle / Godin,45.44693448484644,-73.57219934463501,27
ab65f5f1207275299c5d897fa65e1347,Parc Delorme (Malouin / Laferté),45.5904902,-73.5902694,19
f95ae94bbf8d2dd56d009f8bbf21044a,Parc Luigi-Pirandello (de Bretagne / Jean-Rivard),45.57940569041942,-73.60258877277374,15
b43e650c8729a68e3a7858fbfbe57cbf,Parc Beaulac (rue Élizabeth),45.5200557245067,-73.67795147001743,15
5b9ad55443ed6b09dfdee5336b56b41b,Parc St-Laurent (Dutrisac),45.52591381815231,-73.68911147117615,19
bfc27d829d7ce8c0f9e55b1cab901cbb,CHSLD St-Michel (8e avenue / Jarry),45.5616903,-73.610512,15
ab80e2f4c922bcac89121cb2d46a0ee4,Travaux publics LaSalle (Cordner / Léger),45.44527192876118,-73.62448364496231,15
ac023980748426fdbb7ea233b5043dc6,Parc de Dieppe,45.501863463435576,-73.5439610481262,35
a2da7f5b772dab9f756348a7f21c1984,Terminus Newman (Airlie / Lafleur),45.425059666150744,-73.64959917962551,19
4e0a2eec48ee705304b2799cff6fc240,Newman / Senkus,45.44404309237571,-73.61375212669373,19
7214c61eb7f8d875d6db8db935ad16ea,Smith / Peel,45.49276061084002,-73.55641052126883,19
918f32736e8c298b4c7a5a58f6e46da5,de la Commune / King,45.49750375338383,-73.55284452438353,71
0a3aa715457ea0c777ddd396228eafd1,de la Commune / Place Jacques-Cartier,45.50761009451047,-73.55183601379395,81
d5193bc68b01855a79fd8c694ef2e2f9,de la Commune / St-Sulpice,45.50424245563397,-73.553469479084,43
1ff33fd73e2add3c30fcd821850dccd3,Chabanel / du Parc,45.53830765459552,-73.6548838019371,30
31c3024050ee6f3e44c85eceae251db1,Ottawa / William,45.48972725318433,-73.56406286358833,15
3f155bd80f721e2f372821f3a7b08512,de la Commune / Berri,45.51086,-73.54983,51
c3e33911cfd4f366ea6d4284fd5eb057,Berlioz / de l'Île des Soeurs,45.45998577640931,-73.54395568370819,23
517a5c37755499a8e454d67bcf6b1834,Parc Benny (Benny / de Monkland),45.46693565237702,-73.63153114914894,23
352adb5a53498de53161649383b7d10f,Cégep André-Laurendeau (Lapierre),45.43605512104547,-73.60577523708344,29
41f8b2e49339317de23ae563e66fe4a6,Métro Henri-Bourassa (Henri-Bourassa / Millen),45.55675103297278,-73.66716161370277,16
27c3a4c2a383dbf1d00a15f12f424b09,Dixie / 54e avenue,45.44338026469991,-73.71789157390594,19
da5f7ede0484d9eb36444471bdba6827,LaSalle / 90e avenue,45.41774583815495,-73.64518761634827,15
87bf1cff2cd651ba546aa04cfd5885c7,Métro de la Concorde (Léo-Lacombe),45.5604898518365,-73.7091851234436,19
2501128835e132f929d56798aa789839,Calixa-Lavallée / Rachel,45.527831544563064,-73.5719096660614,30
815c7df219d6937348c91d460fd1ff44,Parc du Mail (Bois de Coulonges / du Mail),45.59833498124187,-73.54596734046936,15
00c210cb99cf9d1b923c1548938aee56,Marché Jean-Talon (Casgrain / Shamrock),45.53519006163501,-73.61548215150833,26
f9bb106633ce38eeec6728faed3155ad,Fabrik8 (Waverly / Jean-Talon),45.53330725719417,-73.62082242965698,18
bab144d31daa205b40397f6c7b46930a,Parc Courbertin (Valéry / Perrier),45.5839877335556,-73.60809333622456,19
b8d3de5b902c4b274f7fffee62009ef9,Parc Hébert (Colbert / Provencher),45.57237805962001,-73.59370462596415,15
a1ded48e42e6fb03da399602be3aab17,Parc Garibaldi (Liénart / Bélanger),45.586476480180046,-73.570396900177,15
cabbcb2310a23cb9394df1d78a9b0fc2,Parc Aimé-Léonard (Gouin / Ste-Gertrude),45.60835820969716,-73.63850623369217,17
33a2455e6803dd9aa77a4090dfae83f8,Parc Charleroi (Alfred / Louis-Francoeur),45.59953472156509,-73.62360253930092,15
8b16cd408c6adee5f72d6e5d91bc2b9d,Parc Maurice-Bélanger (Hébert / Denommée),45.5877138098252,-73.63171823322773,15
53a067639d877bfe105996a58bc1aa3a,Gare St-Michel / Montréal-Nord (Pie-IX / 56e),45.583197821913785,-73.62978704273701,15
a32e2261fca6732a8f47eec9fef69017,Parc Jeanne-Mance (du Mont-Royal / du Parc),45.51689731423111,-73.58910799026489,33
26141dc97cf91e1003a500841cc56b6c,Parc Eusèbe-Ménard (Gouin / St-Vital),45.59253950875074,-73.64874824881554,18
f332a5c6e3f7fc73096885d6efc0f829,St-Hubert / de Maisonneuve (sud),45.51586835126322,-73.56008380651474,19
0243c740e1d4fe272e0c414cdd900c7d,CHSLD Joseph-François-Perrault (St-Michel / Everett),45.55969734528566,-73.60145956277847,18
19f1df34d9b117ae604c95591cf3e129,Mairie d'arrondissement St-Laurent (Beaudet / Marcel-Laurin),45.50682415585665,-73.68184804916382,27
efe7c56e36749af8000e9ef4ee4fc883,Gare Montpellier (Muir / de la Côte-Vertu),45.52374047147138,-73.67169924080372,15
9ee74f8bb62f38529fa85da832fdfed4,Gare du Ruisseau (Dutrisac / Henri-Bourassa),45.52814371649508,-73.69254536926746,19
88de0ba474d1d950ec32feacb9c50d61,Bibliothèque du Vieux-St-Laurent (de l'Église / Filiatrault),45.512843286755896,-73.67612421512604,18
5628b95a789420240f43c4f870c685de,CHSLD Robert Cliche (de Bellechasse / 16e avenue),45.557568,-73.579191,15
d5689456bbada11a02e0a17b675f2544,Parc Ottawa (de Belleville / Fleury),45.58116,-73.6412434,15
278e51e3bb2d95cf556a62edff8f95ec,Parc Nicolas-Tillemont (des Érables / Villeray),45.55463653358596,-73.61255215771962,18
05b2ac429b1d77afa9c0d51ebaf1e9cf,Parc Armand-Bombardier (Perras / Armand-Bombardier),45.6391233,-73.5961118,15
700cf042fd8763ec6c702d94d5b6689b,Collège de Rosemont (Beaubien / 15e avenue),45.55774990838239,-73.58380123972893,26
82cc3be4d76f16ca475536a6e07461c5,Préfontaine / Marcel-Pépin,45.54365380040509,-73.55942063033581,19
aa392581e19d48cf19a168a0dfa88f4b,Métro Atwater (Atwater / Ste-Catherine),45.48952522221574,-73.5844581949641,35
6854cb59f24f653adfba864ecd063aa2,Hochelaga / de l'Assomption,45.566883091095185,-73.53943817317486,23
0f8246e77098962beaa5e48211a7cff8,de Chambly / de Rouen,45.54710313981358,-73.54892447590828,11
91a138f95bde5c11382cfd13a0592bb2,BAnQ (Berri),45.51601387670667,-73.56291957199574,15
e71036c3bdeb0765305e4bb03bf53127,Parc Ernest-Rouleau (Gouin),45.63131269772338,-73.61631497740746,19
03b603c4b20174089f79116554c9c199,Hôpital Général Juif (de la Côte-Ste-Catherine / Légaré),45.49624140543275,-73.62983867526054,26
13644fc87d5bae7c6738fba71a62d02c,CHU Ste-Justine (de la Côte Ste-Catherine / Hudson),45.50398168549117,-73.62283945083618,37
27064168fabfe462923c7d8fe7021aa6,Parc Honoré-Mercier (Notre-Dame / Liébert),45.59275253568305,-73.51035632193089,27
44adc0060274b501029d4c79042c349c,Keller / Cousineau,45.52355020292929,-73.7138856947422,15
5e4cc24a6bea5e106ac0ca40faaa7e69,Parc d'Antioche (Place d'Antioche / St-Zotique),45.59566584124368,-73.5596626996994,19
94ad6ee5b193f8c17b3fdfaa82b5edb0,Gare Lachine (Sir George Simpson / 48e avenue),45.447821314280105,-73.71091783046722,15
c8aba35f90d2eeada8a20ea7915c943a,de Gaspé / Marmier,45.529668174024685,-73.60166944563389,21
d396617f8d34e1100febd7cd446e790a,Grenet / Poirier,45.51871924623225,-73.69875401258469,15
fccc47cfce1447df0ad26a52c8702dd6,IUSMM (Georges-Villeneuve),45.58661042838809,-73.52969169616699,19
8326ad85524fa7fa9e741b0cc595d098,Square Nelligan (des Appalaches / Alexis-Nihon),45.51431824920811,-73.70799824595451,15
99225e1b15b81b48a3eab08fd447ecca,Parc MacDonald (Clanranald / Isabella),45.48274245886277,-73.63497912883759,15
0d4d6ab1ff41bf892ecbb0e09a8e2f40,La Tour de Montréal (Pierre-de-Coubertin / Bennett),45.55970526805903,-73.55155438184738,25
4bc7ec27e8646cc8b33932be911bef47,St-Antoine / 19e avenue,45.43993803436114,-73.68146234754022,15
e335f2f5ad674c200bb9795ee863749c,Messier / St-Joseph,45.53946063965585,-73.57605636119843,17
30efd061ab22a0caa3dc67f5e027154e,Square Viger (Berri / Viger),45.5121682576952,-73.55481594800949,29
76d6ac391db2e789d1696e32fccf92f6,Dorion / Ontario,45.526991277453526,-73.55821162462234,35
fc65618ae7237066d294ca905b721a7d,Larivière / de Lorimier,45.5291345371163,-73.55923354625702,39
0d4eff17975078517d6779b678d99fa3,René-Lévesque / Papineau,45.52097057660443,-73.5499919950962,37
500c120794c1aa9d469e7790733beb68,Logan / Fullum,45.52836601591233,-73.55117082595825,19
4d789cbd45c1e79cdcf0df4fb1ef3e4a,Joseph-Manseau / René-Lévesque,45.491686521008035,-73.57676714658737,19
ebf264e5f3baddba6e40eba2fe7351e7,du Havre / de Rouen,45.53456256501449,-73.55478646466509,27
cecb49c91023c7469470569da814659e,Square Victoria (Viger / du Square-Victoria),45.50206,-73.56295,19
69f583a85e1a83b443c203b781bfc0c9,Métro Peel (de Maisonneuve / Stanley),45.50038,-73.57507,49
7efdfc0229daac74cfa58a8a39d13ac2,Métro Place-d'Armes (Viger / St-Urbain),45.50631445605528,-73.55967122894072,29
4a754bbdf7514d1e8e49d394cc5b10a8,Métro Laurier (Berri / Laurier),45.52809995527671,-73.58843871625139,23
b9d14281ceeaf9913a820adab2e125c6,St-Hubert / de Maisonneuve (nord),45.51613214980722,-73.56049686670303,23
7a50f09abc2d0051cefd3510ca4f6af8,de Rouen / Lespérance,45.538859462962286,-73.5528177022934,23
249f1231d93aa589fc7d85b327cfbdc8,Calixa-Lavallée / Sherbrooke,45.52479,-73.56545,19
ac4e6691d6abacc0db1730d36a2f3bca,St-Hubert / Duluth,45.522425652788634,-73.57418417930603,23
420abce19f97c69126eea1d8aab0968b,de Bullion / du Mont-Royal,45.52141314643908,-73.58498811721802,19
437c8c76473b5f3e273c27b185aee25c,de Lanaudière / Laurier,45.5333136054992,-73.58373686671257,27
1954f2959d994dd5afe91077c4f446bc,Laval / Duluth,45.51922631024093,-73.57718793155072,23
8e960ee01aeaabf154ed0de7706cba84,Vallières / St-Laurent,45.518967223320054,-73.5836161673069,23
e59b690dd831bd4a6e8637c8dccd306b,Duluth / de l'Esplanade,45.515132275425785,-73.58105599880219,23
297634971ea031c479814effbe61ad09,Hogan / Ontario,45.535295480380306,-73.55116009712219,11
1d33d8f2ef82be88498c6314d7d4c457,la Fontaine / Alexandre-de-Sève,45.52330366033427,-73.55799973011017,19
0c1e06741c10b812a0cef5265fa4f76f,Ste-Catherine / Union,45.50373771539475,-73.56948494911194,34
f287b99d3b1011f3ce2a2db77e0feee9,Chabot / Mont-Royal,45.53413436610844,-73.57352435588837,26
c5694913d65dff9dc611210fa4aeb71f,Gauthier / Papineau,45.52966629503036,-73.56733649969101,23
7ade71dc0f1e89d5e60fa41449efd516,Messier / du Mont-Royal,45.53711414,-73.5710031,26
d7f6bfbc28cb883fec3bf8652faf9e52,Laval / du Mont-Royal,45.5223645775784,-73.58414590358734,15
650b371db12a750bd2db8da8ecfa0890,Jeanne-Mance / Sherbrooke,45.50928678961862,-73.57101917266846,25
1013ec013026d8e51b4e126c5c72c5c8,Métro Laurier (Berri / St-Joseph),45.52723106564012,-73.58672618865965,18
49cad2719afe59f68c6dd729408e7ab5,Pontiac / Gilford,45.527009334270645,-73.58576595783234,23
f841f00a51ce7d08ecd1ec2f960bfd83,Christophe-Colomb / St-Joseph,45.53036486555959,-73.58439266681671,23
ee8bc16d40f2c44ec8a99670f13b7646,Cartier / St-Joseph,45.53582823686429,-73.57869029045105,19
04f6eaaa0d7993020973687c13f41663,Métro Frontenac (Ontario / du Havre),45.533705987798946,-73.55217933654784,23
96a5e4d69af8dd5259395b6843a6f252,Roy / St-Denis,45.51908,-73.5727,26
d57940b77a62f7a447df3d64a43c6792,Maguire / Henri-Julien,45.527041096087785,-73.59347056655677,19
4c6ee625de158c398332f0bce7a5ee9f,Henri-Julien / du Carmel,45.52795093787009,-73.59502326697111,23
e808e34ff5776ce71318665babc70571,Cartier / Masson,45.5380207402854,-73.58352363109587,19
a3a7c5013570835afae29db254bcf8a9,Parc Ludger-Duvernay (St-André / St-Hubert),45.53147464147482,-73.59242051839828,19
b299bc3f5212ba3e717cf5916ce62b37,Drolet / Marie-Anne,45.522402573414084,-73.58117669820786,19
ef7c8f1ab4e9ee9afcdc3c837ea509b9,St-André / Rachel,45.52435318759273,-73.57596650719643,15
db103ab89d18b15ecbf162aafa67416d,Garnier / St-Joseph,45.5330129192707,-73.58128666877745,19
05415b92d6d4fa2364f0151216f4386c,Jeanne-Mance / St-Viateur,45.523026476635074,-73.60184043645859,23
d3a51b0b1043d0371d4803848c5489aa,du Parc-La Fontaine / Duluth,45.52451761488783,-73.57197672128677,22
6b5c2cf446547534e31119d37da9dcb9,Casgrain / St-Viateur,45.52751292628879,-73.59879076480864,23
61913f1d35736d6e9931720b2da53fcd,St-Dominique / Laurier,45.52361490311454,-73.59245739877223,23
17f0bf69fcab6325e7b61d7d64abdc27,de Bullion / St-Joseph,45.52404631813311,-73.59015061847458,23
0daffa0f2290fcf3a58b579d914c16cc,de Gaspé / Fairmount,45.52557815939422,-73.59285570681095,23
510a14e4eb76249f0477e2256b4eedd7,de l'Hôtel-de-Ville / Villeneuve,45.52348082760688,-73.58732756238169,23
8dfcd2d833a194d09c77461eb0546343,Henri-Julien / Laurier,45.52574657625029,-73.59033644199371,23
548d982f0a3ef288c42eb4e689272c61,Marquette / Laurier,45.53543,-73.5822,27
ed38025541fc9ef1a0a96c118bd9628b,Milton / du Parc,45.50936142835129,-73.57386365532875,31
939bd527ead0d30a6cee8299ce215e7f,Waverly / St-Viateur,45.5238561444472,-73.60012650489807,19
c00fd4c69708587e21968504c270e8c4,de Bordeaux / Gilford,45.53611005443118,-73.5762870311737,19
fcdb13ffead3bb13cd5a1080fe953b48,de Bordeaux / Masson,45.53898439552301,-73.5824453830719,19
202f7da35f952703f25808c13ef16abe,Labadie / du Parc,45.5198946757576,-73.59682738780975,19
6b566fd6a50d2693ee4c6a56bbf20b13,Fullum / Marie-Anne,45.53650541861215,-73.56803923845291,27
dcf3b29b6fc30a0bc50964db1228f0d3,Parthenais / du Mont-Royal,45.53640396516409,-73.57141345739365,23
39bb125f5342525e2cea093e9229bdcb,Clark / St-Viateur,45.5251943015533,-73.59935637563467,15
052eb3e7422cdd1cdc5d555cf8d05c98,Duluth  / St-Denis,45.52062760607925,-73.57594907283782,15
ed2dc14d5dca967b3acc6d04a86d3dd4,Resther / du Mont-Royal,45.52562819123256,-73.58177483081818,23
b3595b16fa264069717263de34d8abab,de Mentana / Marie-Anne,45.526026565221414,-73.57785880565643,27
f8a0ae729a9fb295579ee66a3a5c7066,Hutchison / Prince-Arthur,45.50975858607626,-73.57610732316971,19
706aa9cbfdd3690017049a4f1239f340,du Mont-Royal / Clark,45.51941,-73.58685,35
dce3a1ec07d63b448de172e7d72d0ac3,Bernard / Jeanne-Mance,45.52428310031213,-73.6049484461546,23
8680c2c22674be06c18897967d07274d,Jeanne-Mance / Laurier,45.52027633320609,-73.59497621666378,23
6687fb585a268ce2773a3bf177d018d1,Milton / Durocher,45.508140959417744,-73.57492983341217,27
6830d20837ee0a702a0d46d406d28adc,Clark / Prince-Arthur,45.513342512307055,-73.57301607728004,31
934c01777da99558c71fb7d884c0b0fd,Bercy / Rachel,45.53840340979245,-73.56196403503418,15
5cfd60046a752b4509984dd7a4809b97,de l'Esplanade / du Mont-Royal,45.51825290855221,-73.5883381962776,23
59558213efd32c716822b3e9e9570282,Villeneuve / St-Urbain,45.520188,-73.590559,19
046de14b5741438fbdca56a59103a640,de Rouen / Hogan,45.53636263222538,-73.55421245098114,15
427f2a0d1140f625f37362e57df8ddc8,de Gaspé / St-Viateur,45.527672646696104,-73.59738260507582,19
2d115175567a8c88d4f82138687cda9e,Waverly / Van Horne,45.527363,-73.607723,15
03ded6d6c0277b031f18feae9c518a75,Poupart / Ontario,45.531836726498305,-73.55348825454712,19
bee62ce0ebdbbb977892fdd622bb6752,Querbes / Laurier,45.51748721436461,-73.59788417816162,15
f579de6a5a33991af59a9ac22eee6f95,Berri / Cherrier,45.519266156911335,-73.5692971944809,39
f6ab2306a49dab9b89f6c9b84ba9db2a,Aylmer / Prince-Arthur,45.508566869474386,-73.57769787311554,23
39244374a5b3ce23cb1b770ca09bd40c,Bloomfied / Elmwood,45.51825588419192,-73.60320568084717,15
636183b074c59d10b7ef068230b11fb9,Marie-Anne / St-Hubert,45.5246829812827,-73.5788968205452,22
fccd62f25a7dcb4f43bf9a6a18e805be,Durocher / Bernard,45.52222528598142,-73.60668718814848,15
d92d303481fd9aabbebf6b8f94872a15,Fullum / de Rouen,45.5321322155395,-73.55876013636589,27
da210259ebf19775cc34bb29eaf25298,Sherbrooke / Frontenac,45.5367,-73.56081,15
4cfa37d30555ab9641249939855931ed,Square St-Louis (du Square St-Louis / Laval),45.516090801970655,-73.5701286792755,31
115474ece7fe0aa5e0a79e56b11b3c8c,St-André / Cherrier,45.52051578783967,-73.567695915699,27
4ce15c387a972cba5e0f347686a5bed6,Gauthier / Parthenais,45.53292625574653,-73.56377989053726,15
3e9e4f67f3381c248e404a31a444593e,Garnier / St-Grégoire,45.5358215436799,-73.58710169792175,27
45f58d2bbe9530b531b4d156490598a5,de Lanaudière / Marie-Anne,45.52932643090091,-73.57480645179749,19
59613e10c70abb20ad41e36aa5ecd727,de Lanaudière / du Mont-Royal,45.53022106537559,-73.57699647545813,31
f4ecabed1cc5d24dc4d5641aba401496,Boyer / du Mont-Royal,45.527432126380575,-73.57991673052311,27
b17c1462a40c242a182e48fe9202146c,Chapleau / du Mont-Royal,45.53867,-73.56936,19
91999bda6f446db71f0ab1f18ebc4b23,Parc de Bullion (de Bullion / Prince-Arthur),45.515604257816335,-73.57213497161865,19
f95c4b2a6cd2043afb97a5e167902488,Hutchison / Van Horne,45.52497706918177,-73.6106863617897,19
4de7379430623fca6d843562d1ce43e6,Hélène-Baillargeon / St-Denis,45.52974,-73.59527,19
fc76ef32a2323d60d759e2229379418c,St-Dominique / Bernard,45.52793332015246,-73.60122251338906,23
c73445e90f1a3324b77d2c1fdb4d53e3,Durocher / Sherbrooke,45.507076248365834,-73.57228517532349,23
77be8b3e222ca95757ab876157bb30dc,de l'Hôtel-de-Ville / Sherbrooke,45.514524730294404,-73.56835573911665,27
469ae7d7a28665f3f945c3a1aa53cc0d,Cartier / Rosemont,45.54124722370603,-73.59104454517365,19
638db20afe40bf00a77633fca8ebfee9,Graham / Brookfield,45.52022241072457,-73.62985610961914,23
0dcaca1327f9e25a991cda59b2f33ac5,Brittany / Ainsley,45.52588991809354,-73.65003436803818,19
cbd672a65f66f7bfa419431d60aea030,Parc Pratt (Dunlop / Van Horne),45.514918954061876,-73.61968517303467,15
39dfbf1650c05e4f21a3b196818c4d71,de Bellechasse / de St-Vallier,45.53341043363302,-73.60112428665161,19
2c9020413f1e9874756f0d7fcc743307,St-Dominique / St-Zotique,45.53226461018495,-73.6110632121563,31
4fa269879d40657ffbab12fdb2c851cc,Louis-Hébert / de Bellechasse,45.546661109634606,-73.58868420124054,26
63d26eacf7e8f19a45c9e101b6f71ddd,Parc Joyce (Rockland / Lajoie),45.515617,-73.614991,15
425d72b42e841857dfef54441255aebe,des Érables / Bélanger,45.54912085535069,-73.60087350010872,15
2b57be16a1b802c69de6742a1ec49527,Louis-Hébert / St-Zotique,45.55001,-73.59576,15
412b6c7d157d69fcf39a8ec8a1269c69,de Gaspé / Beaubien,45.531957916826386,-73.60700100660324,19
a55042c1563ddaefa910fdd0553e594a,Parc Père-Marquette (Chambord / Rosemont),45.537087833013324,-73.59321847558022,43
de47bdda50a0b713a267c0bd08d0a959,1ère avenue / Rosemont,45.54779995287998,-73.58486741781235,15
fb827e1f22e7180918b8311814ad5b5b,1ère  avenue / St-Zotique,45.551937362101,-73.59392791986465,15
0804af1a0607c5aff81fae6d4bab8fc7,Boyer / Rosemont,45.53409866804061,-73.59553456306458,31
d6c3fafac0ba50db181823baf216ba98,Cartier / Bélanger,45.546779039476185,-73.60281676054001,23
fbce0c9761735863a0a102042faea923,de l'Hôtel-de-Ville / Roy,45.51733075399989,-73.57449866831303,19
e4a5e5301aba4cd89564b10966fb81c9,de Brébeuf / du Mont-Royal,45.52927839879717,-73.57792854309082,23
02044f52405851c50980c20964349a5d,Drolet / Beaubien,45.533348,-73.605834,23
31e638f409c4a93e68f461daed035811,5e avenue / Rosemont,45.54990048023633,-73.58308374881744,19
8951d589de5b1127135d823158676a54,Chabot / Beaubien,45.544375546398065,-73.59564453363419,15
efaae4b093ad86f718bcc49ef399d653,Henri-Julien / de Bellechasse,45.5315079142152,-73.60308364033699,19
e2922721127dd2164c595a61feb86504,27e avenue / Rosemont,45.563709940264175,-73.57139468193054,19
b0f4cfae8d6efd744b142c7f3140e5dc,Drolet / St-Zotique,45.53488214147823,-73.60941231250763,19
73bae244a5e74910ef39ad95e47d7e6e,Fullum / Holt,45.54391953154915,-73.58424894533528,27
241e9669df3c4df212819dbb4d2f63cc,3e avenue / Holt,45.54800352985515,-73.58138993382454,19
c88102464b88e2dae390420e94d969a9,de St-Vallier / St-Zotique,45.536434338630336,-73.60783427975548,19
23a2852bdcd316d3a09bc9b72aed633c,Cartier / Dandurand,45.53923559055867,-73.58594566583633,23
85c717da7306440022c12ccb771b0bde,Graham / Wicksteed,45.51693654712809,-73.64048302173615,19
57c201651dba51666c7f98afb887cb07,Mozart / Waverly,45.5315236502754,-73.61701235175133,15
a4c072a3a28ccae3ffb48dc1c461355e,Chabot / de Bellechasse,45.5425697477813,-73.59214425086974,19
e3bc8082b32ea4f2d9185551c9e96782,de Lanaudière / Bélanger,45.54365085053057,-73.60565051436424,23
4d42e407ec7212f713c24dd4ea217b87,Waverly / St-Zotique,45.53050525974957,-73.61470833420753,19
4db50e7a836ddc515ca0d69697d87e8d,15e avenue / Masson,45.55389801568004,-73.5713866353035,23
4fb0196e6cefd3c0304f2f7497e1d53a,Fabre / St-Zotique,45.543653916207866,-73.60126135876271,19
63de8e2869ba1c19473b4f0820d45595,16e avenue / St-Joseph,45.55293611277267,-73.56577143073082,23
03306a21cafcf901fa4a45504a834c72,Boyer / Bélanger,45.54006,-73.60897,23
e59c27358dc6658647b8d0be8f8c7573,St-Urbain / Beaubien,45.52954744851231,-73.61071854829788,15
8efb5a0805e2a3e9ffaaff30fb84d12b,Marie-Anne / Papineau,45.53176697148175,-73.5724139213562,23
cd4c0fdebcb37039488e28460460af01,Jeanne-Mance / Beaubien,45.527650097960205,-73.61229971051216,15
416cf5d02e2213626d5df87e159af93a,Métro Place-des-Arts (du Président-Kennedy / Jeanne-Mance),45.508204615051355,-73.56881439685822,27
a2c46273aac398c46a03e72aac69153b,Marquette / Rachel,45.52983801723605,-73.5703244805336,15
cfc4f0090e99d2d5893cf2fa180ac31c,Wolfe / Robin,45.51958082831579,-73.5601159930229,23
97d3674bee845c38c126be32647c8c6a,Bourbonnière / du Mont-Royal,45.55358456339093,-73.56052905321121,23
6ecaf7d11d573ebfe1e6d00703d11552,Graham / Kindersley,45.514080696641386,-73.64694982767105,23
5fc280895d73433263120a63fda937fe,McCulloch / de la Côte Ste-Catherine,45.51577505385328,-73.60060930252075,15
2c57dc3c587c73e643e570106ee6c6b2,26e avenue / Beaubien,45.56485589064712,-73.5774926841259,15
4248074bfe0e352b10c588b4c6db0b87,de Chambly / Rachel,45.54991069359101,-73.55826258659361,23
bfbed6de4427cc9ed84510fa2c5562a6,35e avenue / Beaubien,45.570081,-73.573047,27
5f2a393b4ee449fd5e40048b00911753,de Bordeaux / Sherbrooke,45.529914321737415,-73.56302618980408,19
d750c6a972586087e3a61f5039a305cf,d'Orléans / Hochelaga,45.55061693669672,-73.54901432991028,19
9dbc225970bc3623c91fd503d77751ef,Jeanne-d'Arc / Ontario,45.54959767887176,-73.54187428951263,23
d5f8970c51111a8acd3612e60a278f47,41e avenue / Rosemont,45.57178977666956,-73.56431499123573,19
7bd0327716a2b7b7ea04361e80d53423,Parc de Beauséjour (Gouin / Henri-d'Arles),45.526765,-73.730423,19
4a0edadcaf1f36efd17948fdf1407120,12e avenue / St-Zotique,45.5568667309625,-73.589306473732,23
edde889fae7031ef9951452b3d46c13c,19e avenue / St-Zotique,45.56168275734862,-73.58564794063568,23
01f9b7e63833ad61e80a7963e2ad9b25,de Lisieux / Jean-Talon,45.57934937043077,-73.58168095350266,18
364cabb5949c7690cffca04ee3c6a4b5,de Gaspé / Dante,45.53429782539273,-73.61217230558395,23
c15a09657007898b3630f7b66f1d42ac,Davaar / de la Côte-Ste-Catherine,45.514379,-73.610871,15
1c5d4ba80389fafb75d31d3485e0487d,Alton-Goldbloom / Notre-Dame,45.54502601340392,-73.73787671327591,19
a2ff3d0c7ee4f7c8686bdafa3a4fc5e7,Bloomfield / Van Horne,45.522745298216094,-73.61328139901161,23
b575803863daa30f30a36d475b72895f,Place des Festivals ( du Président-Kennedy / de Bleury),45.50764392965887,-73.56932401657104,27
dea43e31fb751163e698d5467874eebb,de la Roche / Bélanger,45.541669595766315,-73.60760450363159,23
9acb2c0c2b48fe2e76bcbe4010af342a,Campus MIL (Outremont / Thérèse-Lavoie Roux),45.52311432992147,-73.61815363168716,23
37dfd0b2993501a80fdf81e37768141e,Le Corbusier / St-Martin O,45.565006717407506,-73.7319054454565,19
81e413363c9c2b6933f4706dd9fafc6b,Place du Canada (Peel / des Canadiens-de-Montréal),45.49788352593901,-73.56856763362885,26
658bb3c7434993bc7278b948e197aded,Dollard / Bernard,45.51678269880724,-73.61142262816429,23
840a8bdce0a97bfedb2d5eb6378b6663,de la Roche /  de Bellechasse,45.53718135927993,-73.59750330448149,15
60fb3c73c0e7c31c841d586448833ba3,11e avenue / du Souvenir,45.56933906192115,-73.70472729206085,15
17b6900c27a6d394bf754e410e736806,Ernest-Gendreau / du Mont-Royal,45.549713734001415,-73.56384828686714,23
370c80563082368ae1464ee995801961,Paré / Mountain Sights,45.49810026070624,-73.65294188261032,13
ef2da34f39c2d63ea85001255ab20e19,Robin / 15e rue,45.559495502858624,-73.6989176273346,15
f06063d509814af631ff3637dd0ad8bc,Beaudry / Sherbrooke,45.52303493310712,-73.56539458036421,27
c57dd75c9c28e325882f666e1fe30c7a,8e avenue / Dandurand,45.550113551561694,-73.5772217810154,19
c42929dcdbfe4a38f068a2fdd3da946e,Métro Université de Montréal (Édouard-Montpetit / Louis-Collin),45.50363996257211,-73.6182689666748,26
a31b0781205466d8ec391d6e4d31a0c8,Parc Henri-Dunant (Léger / Henri-Dunant),45.56843961893042,-73.6752020941276,19
0aedabffd74cb17524a08ef1f6b336f9,Gauthier / de Lorimier,45.53166363055749,-73.56536373496056,19
bdcf73bbe8b7ff123838d3aaa93b7c9c,du Mans / des Alouettes,45.58033485941123,-73.68471868336201,23
38a5272f540008af3bbca0d281fa3f9c,St-Dominique / Napoléon,45.51666442219882,-73.57722043991089,23
1c05683a4675c3de48297fdef6870e62,St-Jean-Baptiste / René-Lévesque,45.64141535746634,-73.4999567270279,15
663a95a70b0a1afbb23d156aa7ac3ecb,Sabrevois / des Récollets,45.583287878804136,-73.63276362419128,15
114edd30245c9b7ae8dedcc2d22fc398,Parc nature de l'Île-de-la-Visitation (Gouin / de Bruchési),45.57833184623925,-73.65595400333405,19
9b279b4355888cdc79c1b55692276c67,du Tricentenaire / Prince-Albert,45.64954588445726,-73.49191546440125,15
cc60da52525500f1d3b637b7b988705f,Fortune / Wellington,45.477923,-73.559038,27
3565ca57a8993b9bf335ed73042cafb8,Place du Village (St-Jean-Baptiste / Notre-Dame),45.640002860465096,-73.49011301994324,15
f9d30314d14794ea0c378ba2c1ee0c5d,Gary-Carter / St-Laurent,45.53613488953656,-73.62258464097977,38
9836aac1ee4659e9103ab4a3ac10c9e0,Métro Parc  (Hutchison / Ogilvy),45.53035130173597,-73.6243924498558,33
485d66968361b44b2fbfa4a1384d87f1,Logan / de Champlain,45.5231943285584,-73.55584256350994,19
df284d02a5abe2ca93e5885f5718f0f0,Bourgeoys / Favard,45.47993042065731,-73.55592101812363,27
ac728f271b196e19899f2323fb8d7795,Richmond / des Bassins,45.48752158511353,-73.56500297784805,31
8aa19138e54fae304dcd6f0088db07c3,Parc Chenier (de l'Aréna / Chenier),45.60248649638568,-73.5432904958725,19
6086b10ac3a09a5ad176d6a32deaf0ad,René-Lévesque / Panet,45.51862424058306,-73.55219006538391,19
251c1026721c2b86f0c7b68be5992fdf,6e avenue / Villeray,45.55873962047568,-73.60589044634253,15
fec442e5bd4a6d1999980029e905394e,du Mont-Royal / Augustin-Frigon,45.54355786336148,-73.56780052185059,19
a4587d02411ea6ab69af7d1d5f8fa987,Michelet / Jean-Talon,45.57627820285533,-73.58353972434998,23
ede6b6e636d0057c3569441aad58f64c,des Bassins / du Séminaire,45.49047561880464,-73.56022328138351,35
d953df55ce2e1380f9348b449c98d4c5,Parc du Pélican (2e avenue / St-Joseph),45.544580831168204,-73.5717111825943,19
51cada9ae1043ecc00fa98b7439b11f2,Marie-Anne / de la Roche,45.527550507601894,-73.5762870311737,19
1f12261e2dfcf3c7df231a27c7e43f0a,St-Dominique / Rachel,45.518593,-73.581566,31
a57bc720128ed8a9099da4e5b069f3ef,7e avenue / St-Joseph Rosemont,45.54710817336986,-73.56936693191528,27
5aaf47dc0e0960e251b829e0aa574ed7,Jean Langlois / Fullum,45.526499983000186,-73.54575277422555,31
13a1326222ba6cc555797cbd6ba01b8a,Bibliothèque de Verdun (Brown / Bannantyne),45.44826204820947,-73.57785612344742,15
bf77b109a6eff9c654508ba2d20ffb12,LaSalle / Crawford,45.43791516514076,-73.58253550531117,15
7372f7ed2ed2e266bdc479ac49bc6392,McNamara / St-Martin O,45.57120355585774,-73.72351884841918,19
a829d7ffd9fc7790630d17dbbbf27641,Natatorium (LaSalle / Rolland),45.4443505862464,-73.57542979723802,27
37ce10146483055c24d0d49bddc32c5d,Mairie d'arrondissement LaSalle (Dupras / Jeannette),45.429166968311485,-73.66280972957611,15
839b54eac6c8b3e1f24c9427392c7456,Parc Chopin (Dumouchel / Tessier),45.570726609302966,-73.7370860205192,19
55afb3990a73681697287d73d2c86ee6,Pierre-Péladeau / du Centropolis,45.56251175219665,-73.74370649456978,23
577f06695e8ce5015eceed3a6bf0ac49,Jeanne-Mance / St-Martin O,45.557421482389636,-73.7480603903532,23
83002097940dd96fa20d8df45c2835fc,Argyle / de Verdun,45.45301583620112,-73.57191503047943,23
444448176f019fa75930cba6037f6ed8,St-Jacques / Vinet,45.485328993998365,-73.57692271471024,15
19878f499c71d91e2dc763e62bff8c7c,St-Charles / Thomas-Keefer,45.477605,-73.573775,23
a9142a6ec00960d46f5da6ad36796ffe,de Chenonceau / Chomedey,45.56157,-73.75448,23
9f499059b795e09782c2fca675a5e382,St-Joseph / 8e avenue Lachine,45.431518914135125,-73.67110446095467,27
1c51af1e97aec802172c57959d16c64f,Lionel-Groulx / George-Vanier,45.486346321757786,-73.57352435588837,23
8a258ed78afb57f3980301e5f4272f4e,8e avenue / Notre-Dame Lachine,45.43498715540587,-73.67079868912697,19
c799ff1b7971723fea262952f298e8af,Beatty / de Verdun,45.450729976972944,-73.5725748538971,23
d2d233d7e6e100a2596281248ceb5191,Mayfield / St-Martin O,45.553017541248565,-73.75822663307189,19
3944bbaf9bac2bc4ad72222245d22821,Gloria / Dollard,45.42971096449354,-73.633883446455,15
67238639a0c8e1f08538b0473cd10170,Bel Air / St-Antoine,45.4824297233159,-73.58367975812143,23
d49558463486814195af14448d9871b2,4e avenue / de Verdun,45.4568844514464,-73.57260704040527,15
929cb3603f7f95fbba1535c38d913246,41e avenue / Victoria,45.44053238705948,-73.70242863893507,15
a6620bd5c000126bdfa2f31ec1d86934,de l'Église / Bannantyne,45.4632535358533,-73.57587933540344,15
7fad188fa346f1ef366ec76e13737b13,Regina / de Verdun,45.467369,-73.570769,23
61da15b80b82561752f3270693c5165c,Turgeon / Notre-Dame,45.478888528072076,-73.58198940753937,19
07c7d44ac97d0906af2e27a24fd56b13,Jacques-Le Ber / de la Pointe Nord,45.47259900304475,-73.5398056358099,27
ec091ad336edded3d10777e6308b26f0,Métro Lasalle (de Rushbrooke / Caisse),45.47069642604657,-73.56542240828276,23
0f9bbd42138f37400bff6baaaff859eb,Métro de l'Église (Ross / de l'Église),45.462846046287325,-73.56592163443565,19
6b1c6c5668bf007879235ca8c37ca376,Métro Verdun (Willibrord / de Verdun),45.459487694540734,-73.57209205627441,27
dc501d66a965b984bab50cfa37ae73f2,Rose-de-Lima / Workman,45.48026417718717,-73.58099363744259,23
0daa8a40d4a613e38d2be70c6baac3d3,Panet / Ste-Catherine,45.51999897796297,-73.5548883676529,27
1082604365572209e09718f6690249b1,Ste-Claire / Pierre-Tétreault,45.60191332161639,-73.52441847324371,19
27664eb30b56774476616bd5f1ddc0de,Parc Félix-Leclerc (François-Boivin / St-Zotique),45.5914549914687,-73.56275528669356,15
14313ece3fba0c9be8615f400fd8980c,Desjardins / Ontario,45.55118417872238,-73.54087114334106,23
f9cff3cd7959287708ec2346fdc9f24c,Métro Lionel-Groulx (St-Jacques / Atwater),45.48295816149219,-73.57975836854166,33
0fd9694a284f367a93e09aab47f56a7d,5e avenue / Bannantyne,45.456365,-73.57614,15
cc211dcba4ef94c4a141a37ef87da2aa,Letourneux / Ste-Catherine,45.55078357889704,-73.53409996037954,19
24170e2b4988a35b835b818e6622f46e,de Grosbois / Duchesneau,45.611230741550536,-73.5312415660519,15
f2eb7277712f252dfa429edacc393688,Métro Préfontaine (Moreau / Hochelaga),45.541374968866094,-73.5542231798172,31
8c3e8bbf15685f205ba044dbeac4960a,Peel / Notre-Dame,45.49544692088696,-73.56329441070557,47
04c57a547249150f2e0fea6c07bd3037,Letourneux / Hochelaga,45.55465888075087,-73.54660302400589,15
bcdca0295c5c26ad7854aa6c9aabc46b,Ontario / Sicard,45.55626186680846,-73.53744059801102,23
62f2158455e02b627217bff86692c592,Argyle / Bannantyne,45.453318765468914,-73.5767751932144,15
c573e32cf71119257aaf9c0dcd51bbb7,Ontario / Viau,45.5594818,-73.535496,19
576e0d3e08c4c2a9ec39b3228ac9b91e,Souligny / Desmarteau,45.60444089974122,-73.51611837744713,15
a0dafca2160e6e43d700ba63c07a7af2,Parc Lalancette (de Rouen / Valois),45.54814504700217,-73.5471260547638,23
b70ce7493bae1388aa38f66e6e8434f1,Métro Pie-IX (Pierre-de-Coubertin / Desjardins),45.554373399819674,-73.55137467384337,41
087ebaee08c22fcceddf4c659711fc06,Montcalm / de Maisonneuve,45.519131967116216,-73.55788965214742,19
3907c9dd03e1eb2b87e60ee8e44cc076,Métro Beaudry (Beaudry / Ste-Catherine),45.51888453178292,-73.55593845248222,23
2ac881e707deb129d22c277981b83221,des Ormeaux / Notre-Dame,45.59926552299961,-73.51226069033146,23
0dc51758d1fa3f735ae6aceec2ebbccd,Ste-Catherine / Dezery,45.539385081961676,-73.54099988937377,19
2032711148d8591691b99033ef8cb1c8,Métro Assomption (Chauveau / de l'Assomption),45.569789,-73.548081,23
2d1688ea5fe9eda664f3bbb9ac5be483,André-Laurendeau / Rachel,45.54303187243879,-73.56256484985352,23
392420a4d81c444ab82f2c51172413a5,Métro Cadillac (Cadillac / Sherbrooke),45.57683333463968,-73.54647415224463,19
0c9cd68aa1bd69a080463ce7f302337c,du Parc-Lafontaine / Rachel,45.52551168509886,-73.57424452900887,19
d6ff1c4cb864d2d50b5d9ed8097dfb17,St-Germain / Hochelaga,45.543652466151,-73.5534825682771,15
48358d12d83653f998be0408f938da97,Métro Langelier (Langelier / Sherbrooke),45.58284663189181,-73.54247644543648,19
c9e9fe27274a30074192edf2943a819d,Pierre-de-Coubertin / Langelier,45.580314546424674,-73.5353136062622,19
56da2b09eb91197a19a17ad3f111ee6a,Atateken / du Square Amherst,45.52063377251984,-73.56390595436096,31
e2b99409a7260b74d305e1a5fd4fd0ab,de Léry / Sherbrooke,45.54099971663243,-73.55826258659361,23
2dbff1ebbfc94016ae35ddfeb6133850,Du Quesne / de Marseille,45.575812361972055,-73.54123055934906,23
6251ff1e68672d14ccd94dd4d5d86680,St-André / Ontario,45.51889,-73.56353,19
2539b5b1357e00a4c59b263b929bfd86,Valois / Ste-Catherine,45.54522973039872,-73.53725016117096,23
5943fbcd980fda1f64b9451d1a8ea5f8,Bibliothèque et Complexe aquatique Rosemont (8e avenue / Rosemont),45.55151193681962,-73.58207792043686,15
dcd94385ae71a2b89052874c692df884,Nicolet / Sherbrooke,45.54969542033443,-73.55464696884155,23
0d09d3f10b062dfca036e47cee35f7a3,Alexandre-DeSève  / Ontario,45.52435882510794,-73.56053441762924,22
f9cf3e6c91e86cf471029dd10f61f34f,Dézéry / Ontario,45.54095791741757,-73.54702949523926,27
b2ff5e1c2db5294d113db231f95c8bb9,Ste-Catherine / St-Clément,45.55671730558936,-73.53024959564209,15
a5ee89a51582e9fef1d0598a74d5401d,de l'Église / de Verdun,45.46300108733155,-73.57156895217486,19
9ded0f40cc46b3f01b00a3033246b3b9,St-Jacques / St-Laurent,45.50644464920572,-73.55648696422577,23
765d7ab045b2fb1beb8a1034fb01171a,Liébert / Hochelaga,45.59587457490178,-73.52352797985077,23
50ee08de38ded52019cad64b2be46375,du Champ-de-Mars / Gosford,45.50965520472071,-73.55400860309601,23
a17e552d6c331c1f935f7766593c3672,St-Jacques / McGill,45.50144108135568,-73.56014415621758,31
c6315ed8be3d1b1db4e1743fd8cf702d,de l'Hôtel-de-Ville / Rachel,45.51989655507833,-73.58010649681091,14
8816abf99dad433ee5a7dfd43eb9e7b4,Gagne / LaSalle,45.422451407155854,-73.601194024086,19
935e7ecf165bb0039c08cd0e2a7d51ce,Métro Honoré-Beaugrand (Sherbrooke / Honoré-Beaugrand),45.5967964774917,-73.53517949581145,23
9b1fefd8f850f3343e75c549459840df,des Récollets / McGill,45.5008764952487,-73.55900555849075,23
0c2a4ecc9f51dd227f050651ae2dd6fe,Métro Radisson (Sherbrooke / des Groseilliers),45.58917500418707,-73.53965610265732,19
b00d02e75bacace8be150754cc2b4744,William / St-Henri,45.49891911390352,-73.55725407600403,15
af546a8f7b1b7fb5f30b8913d91132bf,Bélanger / St-Denis,45.53696,-73.61199,23
30b3972ded9afdaa750cbbeef330fe74,Marché Jean-Talon (Henri-Julien / Jean-Talon),45.53678525128436,-73.6148879583925,23
dd90b8d66fbadef744f51cb9403d0fc6,St-Nicolas / Place d'Youville,45.501966859101564,-73.55515256524086,23
7c920d7522a3c8abcede6106562c99e6,Molson / Beaubien,45.54968589617967,-73.59115451574326,23
62ae697614fc30933f67aa117dcae40a,d'Orléans / Masson,45.557192,-73.569847,19
42d228ac4871096ae20cb29c7448d2b9,Union / Ste-Catherine,45.504027213143104,-73.56970220804214,35
fa5c754a52303327c38b54956e044594,du President-Kennedy / Union,45.505102242483595,-73.57187882065773,23
2b315425e18f16fa60831f1b3c3404fc,de Grenoble / de Cassis,45.57889719514108,-73.70492711663245,19
9aaeb514f62c04faf6c442e0a3c422ee,Darling / Sherbrooke,45.54545514686953,-73.55673909187317,23
3126d658666f5f32075689284fc0ae02,5e avenue / Masson,45.54752382909683,-73.57513636350632,27
ab4b146737660d93b736cd75010e84a5,10e avenue / Masson,45.55037651450808,-73.57373356819151,27
7c1b0523756e972a564a67a123642ce4,St-Alexandre / Ste-Catherine,45.50527354034462,-73.5674786567688,27
7f06a7dd290f87014f37b09606f82501,Métro Bonaventure (de la Gauchetière / de la Cathédrale),45.49831217703312,-73.56725603342056,31
f60d8fbb9b67ac90d53afd90933bce78,Grand Boulevard / Sherbrooke,45.46670033299904,-73.62355081379064,17
76724952c28f4094bc271838f3de2bcf,Langelier / Marie-Victorin,45.61451982045293,-73.6118745803833,15
a10f7f46ff1cfff0a26c3f9f364d83b6,Benny / Sherbrooke,45.4648769981855,-73.62659722566605,19
0b43d5b25082fcf948a599c9c2f004ad,Park Row O / Sherbrooke,45.46072936353252,-73.63407254219055,15
3ac5779605b9a709b92cb4dea4892111,Lucien L'Allier / St-Jacques,45.493514106710734,-73.56848180294037,23
e14b6c2c9409f80090a2cabc3ebe4a42,Aylmer / Ste-Catherine,45.50434678685089,-73.56894850730896,39
7c32f3b5366899daa12d5a2315c5eb5e,Grand Boulevard / de Terrebonne,45.470535000953966,-73.63165721297264,23
cfa85c0d171620de658d1fffcd749528,des Jockeys / Décarie,45.49404432109336,-73.65449488162994,19
975a36ecbf71ebb1bb1cb5f5ae237f84,Lacombe / Victoria,45.49048314001669,-73.62913727760315,19
cf89ce8fe2aafb11df3c7a2262e6013e,Parc Georges St-Pierre (Oxford / Upper Lachine),45.46887995929811,-73.60943913459778,19
6f14a073d6fabe8288b7861b4c2dde4d,Métro Côte-Ste-Catherine (Beaucourt / de la Côte-Ste-Catherine),45.491513,-73.633649,23
a75be8f4ffb85d6f4a0996617a2d7f0d,Marcil / Sherbrooke,45.471743,-73.613924,23
745e24e22f492961cb96d949cd8747e3,Boyer / Beaubien,45.537041,-73.602026,27
523850c4d0985de08981251a3b2fd36a,Grey / Sherbrooke,45.47629426230192,-73.60617488622665,15
1ba2b68a717b2c3e7c7fe7e29a2b11f2,Boyer / St-Zotique,45.53848,-73.60556,19
ce541d236b1fb3391edee931485e6ad7,Workman / Vinet,45.483788863965174,-73.5750612616539,23
3616e01253b56f095ead16febd951361,Parc Howard (de l'Épée / de Liège),45.53318929909303,-73.64188581705093,15
31535dd5ca8ee557209a804807032aff,Wilderton  / Van Horne,45.51014162409143,-73.6247518658638,27
c48a16100836e81076eece8b635c8828,de Monkland / Girouard,45.47710675189806,-73.6214379966259,23
a4f34855c377d3e456470f4e93d97260,Métro Villa-Maria (de Monkland / Décarie),45.4789683985657,-73.61959934234618,26
39752185bee108a7c529c25dbf2b1ae7,de la Côte St-Antoine / Royal,45.468926984877434,-73.6198702454567,19
bf0edad2c41a84e491bfeaa7cedb3392,Métro Vendôme (de Marlowe / de Maisonneuve),45.47393028235147,-73.60473453998564,31
4a5d9709ee36d02688d6d300f7472ab1,Marquette / des Carrières,45.53879934493943,-73.58870029449461,27
de30b5881bc66edf6ceeda73cd7a53cb,d'Outremont / Ogilvy,45.52687028194893,-73.62672328948975,19
0c39a4c5f95f416e549a6566c8cd770f,de Kent / de la Côte-des-Neiges,45.50144933057703,-73.63305062055588,39
9fce8c378d9e1fc9d96999ff50a71f6a,Métro Acadie (de l'Acadie / Beaumont),45.52357479400008,-73.62344294786453,13
f0c61f63ab86a419feb632992ce83717,Earnscliffe / Queen-Mary,45.481845071377414,-73.63037377595901,23
f76cd926206a1cd0b4e196175097bca7,Leman / de Chateaubriand,45.54721107501036,-73.63105237483978,15
c6cd5e121b21b2b73e1280b474b330b0,Parc des Hirondelles (Fleury / André-Jobin),45.5762948651025,-73.646759390831,19
9294676d7bc2672f3c9a96e997068e0f,de Melrose / Sherbrooke,45.46991202213883,-73.61735232174397,19
54b599a5daa373b326f7493ab4c3c7b0,Métro Snowdon (de Westbury / Queen-Mary),45.48542414888848,-73.62816195935011,23
5c11d3959c0abea9f83d3f82a8b9f28f,de St-Firmin / Fleury,45.570624722078364,-73.6517858505249,23
1f7deeaa21159a7e183915b23c21ac81,Marquette / Fleury,45.56735205736566,-73.65378744900227,15
32062cce0f8aa927527eeca915fd3afd,Parc Joseph-Robin (18e avenue / Everett),45.56481129244175,-73.59580412507057,19
09fe2c61fe35c26c42e876ca291f8984,Everett / Garnier,45.54758153109644,-73.61220851540565,15
62f1efb1b3ff5fb90b87bbe17174fdde,8e avenue / Everett,45.55776151418004,-73.60154539346695,15
1fefddadf6dab1b29ac4d1759d4ea7a5,Francis / Fleury,45.56387237463668,-73.6555677652359,19
53a6c61dff2c34e3657ab034e9a28613,Métro Jarry (Lajeunesse / Jarry),45.54355974189168,-73.62777203321457,23
b3150d5e0b8ef9db81b4ff8588f3ac46,Boyer / Everett,45.54310243053054,-73.61607524188003,19
301ddcb76b9061b666c8b0f473a4f74e,Louis-Hébert / Bélanger,45.55158518908433,-73.59916493296623,19
9c62a50110d8ee96b870cb01b31ada39,Chambord / Fleury,45.55982811984724,-73.65832507610321,14
210bc54814f1bfa31dbcc85a81a5d434,de Bordeaux / Jean-Talon,45.54975479298636,-73.60556602478027,15
4ceb50ee99698a67059c58b4fa0a40f6,Louis-Hémon / Jean-Talon,45.5517742671765,-73.60347837231528,19
6194bc5aa55d462f6e7cbe7c657858ed,Rousselot / Jarry,45.55081979211847,-73.62088680267334,15
562732190a887013c53e200b28d852e4,Péloquin / Fleury,45.55702223161539,-73.6599015713,15
9da0049d2e375038eb693b8c30d3cbfd,de Normanville / Villeray,45.547172039327485,-73.61815631389618,19
42468ee87701c823b9b4c55f931f18c3,de la Roche / Everett,45.544867,-73.614841,15
a26bf1523b22aa83a563c97fe6ad5ba0,du Rosaire / St-Hubert,45.54481928225348,-73.6215104162693,23
3da178370890fe8edbd73af1c48b6fa7,Métro Crémazie (Crémazie / Lajeunesse),45.54640752148169,-73.63842844963074,15
8ae2d0c3c6bfb29c5614921e85221107,Lajeunesse / Villeray,45.54218173507584,-73.62268656492233,15
d7dff48f13093c3bfd51b409f6c99ca1,Drolet / Jarry,45.54195463236575,-73.62994194030762,19
3432a8084a835047534a32559a9730cd,Lajeunesse / de Liège,45.545580534390176,-73.63490000367165,15
dff5e88a152d16146a02be0bbb60735d,Émile-Journault / de Chateaubriand,45.54983321292286,-73.64063255488873,19
d3b6f3327b6e20c1b95cef748885233c,Ropery / Augustin-Cantin,45.48097552629275,-73.56863468885422,23
60e378e57e019df87f4d573807b1e0f7,Ann / Wellington,45.49449368327543,-73.55676054954529,15
b046e8a8afb19a66afac180111d612e4,Richardson / Montmorency,45.484966061164755,-73.56032252311707,31
bbc440214ed13ddb8a0aeb3951c418ce,Dubois / Eadie,45.45760820718457,-73.59051011502743,23
1e2c0e04e52f776287eed225a5a2382a,Parc Ferland (Belleherbe / Albanel),45.59573798024675,-73.59529852867126,15
167e7c9bdddcd7aa983b61a4f6aaa265,de la Côte St-Antoine / Argyle,45.48624101696415,-73.59572768211365,19
0960bf3c2e9be92bd03fd80c49bf720f,Victoria Hall,45.48129146961133,-73.6003303527832,15
c56841567707d1812755ec56f2ad2895,Berri / Rachel,45.52275023118295,-73.57724860310555,19
8f38bed6dab71436cabe43dea498c8c1,Augustin-Cantin / Shearer,45.48390169543355,-73.56363236904144,31
8304ac71f6ad0f43711281894964c1b5,Mackay / de Maisonneuve,45.49682986230046,-73.57913017272949,39
453cf6c6c91ee54d527694c1f738c943,St-Mathieu / Sherbrooke,45.495789104811756,-73.58259558677672,23
a8be54003fb16d9cab21bd7c5e9c8f66,Guy / Sainte-Catherine,45.49497512853125,-73.57777043248461,31
25db3ab71ecaf5dc56f934c637c1a542,Notre-Dame-de-Grâce / Westmount,45.48046706437983,-73.61122308304402,15
5b7a4c0ffaa2aeb1b8583498e113e81d,des Pins / St-Laurent,45.51522812881499,-73.5750961303711,27
075135a674cea1cf4e2c463d828094c9,Hamilton / Jolicoeur,45.45670282849069,-73.59764268636354,15
839fe2dfb82ec3980eeaa68e23c462d4,Monk / de Biencourt,45.458663192410306,-73.59602272510529,15
78f0ea4a741954f89ed7cbc892fe355e,Ryde / Charlevoix,45.4757434,-73.5646007,27
398a688b86aabbf789c6f4edb8b20ed0,Peel / Ottawa,45.49419955357054,-73.55998456478119,27
4fbafd8f80ff042d7fe3cb4b46400514,Shearer / Centre,45.4828250990486,-73.56206325352105,15
f47f4149fc69eded89e7342b22755024,Métro Monk (Allard / Beaulieu),45.451030919298056,-73.5939010977745,19
d0d69596bd800f2c32acc72647e584df,St-Jacques / Guy,45.491366875439965,-73.57010722160338,23
6e94d95dad598b7c8fd380e55b289caf,Victoria / de Maisonneuve,45.47742856483265,-73.60016942024231,15
4890967aac4400760faaf1e6aa3a083c,Plessis / Ontario,45.523594936648244,-73.56099039316177,19
05b5b355a4772304d10c45029d08deb0,Canning / Notre-Dame,45.486318644010225,-73.5702332854271,23
b9a4abde81beb417902b503d331ffe49,St-Antoine / Jean-Paul Riopelle,45.502939709023714,-73.56064036488532,23
e0db7aad56ff4ad5c02148ffb2d5a594,Métro Beaubien (de Chateaubriand / Beaubien),45.5353599615622,-73.60363483428955,27
6716d6af871575e44ca751b5224df1ef,de l'Hôtel-de-Ville / Ste-Catherine,45.51166045593874,-73.56213569641113,31
e7b4ef40c1aa1decd3a2ffa3bcc9d1ea,Parc St-Paul (Le Caron / Marc-Sauvalle),45.461741021347436,-73.58412176370621,23
fafae7f39486cd7ee5583dc014cf3fc3,de Castelnau / Lajeunesse,45.54043190217008,-73.61650675535202,19
623cb326604861e5d8109580d3e2b5a1,Fullum / Ste-Catherine,45.52711644190572,-73.54801654815674,19
464e8b5950aee06c1eeb53605b286e92,Bourget / St-Jacques,45.48067368593179,-73.58351558446884,19
10ba72984e8d47c16bec40bcddec3d4b,Métro Édouard-Montpetit (du Mont-Royal / Vincent-d'Indy),45.510200304274754,-73.6114051938057,27
34bfe048772e22905ada401f52cc5c1f,St-Laurent / Pl. du Marché,45.50928960913111,-73.56241598725319,27
2fa8e170704d3f148f4d1dea455fd784,Charles-Daoust / 75e avenue,45.54250587659489,-73.74095320701599,27
85531326f9e29994cf18c81558db9fe5,Henri-Julien / de Castelnau,45.53789110878484,-73.6182153224945,23
343f371f725fd1aa3a254beb3207315e,Stinson / Montpellier,45.51962176248447,-73.6662483215332,23
1f7793b1b7e1c83f11792bddb10e297a,Métro Sauvé (Berri / Sauvé),45.550692068419764,-73.65636706352234,26
25ff9160f5e83d4e9c15806e5f503df3,St-Cyril / Wiseman,45.52085479492202,-73.61573964357376,23
4e5a6ca40d9348f973223d6171d2313c,McLynn / Plamondon,45.48911308766352,-73.6470128595829,19
1f5a5fee591fc04c2bd579240b619b80,Parc Champdoré (Champdoré / de Lille),45.5692509593831,-73.63642623429769,15
975300771de5568dd1f8359834fc9cc5,Ste-Croix / Tassé,45.51953948301331,-73.68516325950623,23
69d16a3ba682305cb780815926ca26bb,29e avenue / St-Zotique,45.56776565172907,-73.57968807220459,15
0c274aa11d24d3c12670b98241bce94e,Beaubien / 8e avenue,45.553456845975276,-73.58784198760986,15
546bc36b10be0b09de4a907c9d60ad78,Harvard / de Monkland,45.474565185029945,-73.62403571605682,19
be47af9691772b0d9e5e4c9ac4303975,Hillside / Ste-Catherine,45.48282602624293,-73.59084337949753,15
b298dc46896563af6ea0d289404ea045,Guizot / St-Laurent,45.53968044327973,-73.63450437784195,19
f59884dc043cf535875c6042eb59dd39,De Callières / d'Auvergne,45.593421978698636,-73.6690217256546,23
7604e670cfc2466b147af4ec89f5dba9,Melville / de Maisonneuve,45.48184019359366,-73.59537899494171,15
3fb98eb97376c1da65b2d35fd12cac36,Union / René-Lévesque,45.50235036136798,-73.56658279895781,31
293a664c93f323a1ef7cfa42b534cc45,Bloomfield / Ball,45.52995941738481,-73.6329460144043,19
9c713595b12ffeacadc44a5217c1a4b0,Laforest / Dudemaine,45.539806548176045,-73.6872661113739,23
cefc5afe09efc11756e70a7d5f0b7c39,St-Denis / Ste-Catherine,45.51372291221464,-73.5603104531765,43
a275d1e1d0b9582f2b705053e47f7c98,Ste-Catherine / Sanguinet,45.512936177874096,-73.56124520301817,47
267b809394e2dd9fdd7924b7cceda261,St-Urbain / de la Gauchetière,45.50707812811467,-73.56139540672302,43
ab124a371b47462db18406e94236bbcc,de Maisonneuve / Greene,45.48697062,-73.58929306,19
83a66bd66da62b3668815713aad56886,Chomedey / de Maisonneuve,45.491750449903954,-73.58394473791122,27
7d10cc3be562e52b9c9787752b1991f8,Gilford / des Érables,45.53728040418993,-73.57534691691399,15
e2a04ee5d75f040dafca0496a9be3521,Fullum / Terrasse Mercure,45.535541603465234,-73.56593906879425,23
0366a94e06c77055841607882a40a484,University / Prince-Arthur,45.5074794530521,-73.57864737510681,47
30192da54af48e7af4cb4662768cf5ca,Gare Bois-de-Boulogne,45.53972553109637,-73.67716491222382,23
9ecb8a131a495aaf4da25f65ecba463c,de Gaspé / Jarry,45.540780049797995,-73.63040059804916,19
a373ee2a66d90cbfe5e6ddcf4adb5e5d,Legrand / Cartier,45.55233742797057,-73.70748996734619,15
fd1821200e01192b443a7ebf048f894b,St-Dominique / Jean-Talon,45.53520398241678,-73.6175217570053,31
1ea56d71c39cd0e2a2ccc6061b5cbe68,Chabot / Villeray,45.552289376429215,-73.61300647258759,15
2afa5fecbdfebe7a3aad9070498319ab,Ouimet / Goineau,45.57504823374693,-73.68799567222595,27
cf6e1409b292b38da683ba44e51a4843,Guizot / St-Denis,45.543423548290185,-73.63246187567711,23
748cda93c263ff091980aed944d7c284,Egan / Laurendeau,45.45290792768395,-73.58918591405198,15
c5f193110503c57e1c5f624c8c64f286,Métro Plamondon (de Kent / Victoria),45.494686752797904,-73.63871866467889,19
56cff766a3277c78e45bb4de4ac76197,St-Dominique / St-Viateur,45.52655700191558,-73.5982757806778,31
ea2a077e0e784da0fa7df50bdd791fce,St-Charles / Grant,45.539824,-73.508752,19
c752d8b62e9fb1db8cab2c9b414c8ddf,Marquette / du Mont-Royal,45.53221791147474,-73.57543140649796,23
88cb58243c5bb76b6a8f796ec76f7594,Métro du Collège (Cartier / Décarie),45.50843904979172,-73.6729645729065,17
ffb9a83c9965e7749a06d468a36a7e35,Métro Côte-des-Neiges (Jean-Brillant / de la Côte-des-Neiges),45.495537539518104,-73.6222583055769,31
915dadc1ef01d41024905f31c8463e61,Monsabré / Boileau,45.571796348222385,-73.54152023792267,19
9b2a7ca24856adc0e2898fb4254b8f4a,Chabanel / Tolhurst,45.540105018786974,-73.65347027778625,23
7758064a8883d2200c4ef11ea582fc3a,Pratt / Bates,45.51694782364431,-73.62631559371948,15
6b9099f3e501e72b5a268e0346c2f546,Métro Georges-Vanier (St-Antoine / Canning),45.4891,-73.57656,17
ff57fa074079c8cb3d2bfeffa3adc4bf,Fullum / Ontario,45.5303174,-73.5548669,15
ac7000b84127f7ac259b09f99eb297ad,Louisbourg / O'Brien,45.53039449604383,-73.70393217686795,23
126735d125a23869138e84406c649155,Métro Cartier,45.56007440937141,-73.68125259876251,19
814ad44a52efef38cb7aafd234bd5623,Métro de la Savane (Décarie / de Sorel),45.500251758943925,-73.66171056035454,19
465cd2e49c7225463b4e34c0c019930c,Alfred Laliberté / de Poutrincourt,45.53308032414161,-73.6945965886116,19
6e3570378de8c1eab67ca40818e30a41,Clark / Fleury,45.54758205939525,-73.66522908210754,19
5aed9bf24e62ea6202a7c08dfac25c88,Métro Montmorency,45.55814299291968,-73.71942043304443,23
802c2ec80bcafd464dd2c20569192bac,Ste-Catherine / St-Mathieu,45.49384690142783,-73.57917845249176,31
73eda86efde149b545d1e7646de05cd6,Tolhurst / Fleury,45.54407915308118,-73.66735741496086,19
1de81a5a8e6f461e2b0ed7c9c2e6c3e8,St-Ambroise / Louis-Cyr,45.47519326260791,-73.58094334602356,27
9b28f0b919bfbb8a12134e8ba5e803b5,Terminus Le Carrefour (Terry-Fox / Le Carrefour),45.56842034638607,-73.74687284231186,23
662e5de818ea47b2da5296790a8093cc,Métro Rosemont (de St-Vallier / Rosemont),45.531921043052655,-73.59804779291153,23
2543ea24b3c88ef516b925e0a9233d07,de Hampton / de Monkland,45.47117930747152,-73.6270022392273,11
7cce3c616ae862530bddffb636ed1245,2e avenue / Centrale,45.43289463113104,-73.59685689210892,15
3bd58a7f78129d50b6cb591e8c09e7ec,Laird / Glencoe,45.50619158460727,-73.64230799681536,15
8fb4901e0373b487626367a6769c39c8,Parc Beaubien Outremont (Stuart / St-Viateur),45.515969694922276,-73.60827505588531,15
20e31f2f8a5398766d19f7ba13b51ae1,du Souvenir / Chomedey,45.55188644388879,-73.74444007873535,15
16a02da5dfbb9169ba09818f80797447,Maguire / St-Laurent,45.524628485592636,-73.5958108305931,23
ffb74f094efc5f559700c6b2431da637,de Maisonneuve / Wood,45.48819793805841,-73.58807051185067,19
2ce53a590d5af666dc9c4af17eb4f1f5,de la Côte-Ste-Catherine / Decelles,45.50094101588506,-73.62563699483871,19
9be4ba581c634c13710aea276bade56b,Métro Jean-Talon (Berri / Jean-Talon),45.53900036432657,-73.6142510175705,19
4752f08cc123b7e93771ee25c318efee,Métro Sherbrooke (de Rigaud / Berri),45.51814312154928,-73.56800436973572,27
eeb2a6e52d938b3d2d62bf85196d0027,University / des Pins,45.50817464963893,-73.58002064942411,35
9c775529696c6b915012a33012974f53,Milton / University,45.50651983995355,-73.57640504837036,39
9292944103c5e27311fff5db943995d4,Metcalfe / de Maisonneuve,45.501804363327565,-73.57434511184692,27
4c87345d7a652a966f526460dfa264c5,Marché Atwater,45.48020822800015,-73.57759863138199,32
97a7209d05565c0dd383256371451ed2,Hutchison / Beaubien,45.52605851018324,-73.61296892166138,26
f2d6d41e38a65211b2fd584441f2187b,Drolet / Gounod,45.54095134225734,-73.62637460231781,19
b0b6c3a809801a02bced4c84f8ce3e8f,de Gaspé / de Liège,45.54248521237199,-73.63634169101715,23
068b8514c4f15a3d822da22705e1906c,de l'Hotel-de-Ville / Ontario,45.51374520222444,-73.56666326522826,27
3dca829b40cecd52c3e06acebea5951f,de Gaspé / Villeray,45.53888723230076,-73.62390697002411,15
69e03feb5f98022047ff07b785f9a744,Drummond / de Maisonneuve,45.499515390738885,-73.57602953910826,47
8661cea9ae725868605cd27fbe516bf7,Hôpital Maisonneuve-Rosemont (Rosemont / Chatelain),45.575707,-73.561562,38
9ecf0e9e145d0dbe9a3eccbf3e82407e,Marmier / St-Denis,45.530757980151904,-73.59845817089081,27
1469c136bd5b7cecb99703bfdeaeda8b,Robert-Bourassa / St-Maurice,45.49837045828952,-73.56055587530136,23
72868e742129496e9a06569feb48a7b9,Métro Charlevoix (Centre / Charlevoix),45.4785381897129,-73.56931865215302,27
b47d8c637e56bee96ce62117e2ab850b,Ste-Famille / des Pins,45.5125667269925,-73.57640504837036,11
a8676f4aa0d7752a7aa84a7236787c32,Parc Baldwin (Fullum / Sherbrooke),45.53407048533949,-73.56265068054199,39
3164e04d211736d6dfc9eedf75212e3b,Stationnement incitatif de Montarville (de Montarville),45.6011635681891,-73.44999354332685,19
741db2af6fcc3e2144a41caa2918f1dd,Quai Yvon-Julien (Marie-Victorin / de Montarville),45.606718042243784,-73.45692034810781,21
7bedad3f528849a1cc130a3a0ad67f35,Stationnement incitatif de Mortagne (Ampère),45.57251733677832,-73.44312071800232,23
f637d93e69b10a014aa14b90626113fb,St-Joseph Lachine / 21e avenue,45.43352120253739,-73.68354320526123,19
10c3eb3e2454d8de03ed415d563d6862,du Parc / François-Foucault,45.605785392139126,-73.66273999214172,23
a65aa68cb23206fc1b15868873e36df2,90e Avenue / Boulevard Lévesque O,45.53121456506295,-73.74735295772552,27
eb0fd4c2ab7be34b815978bb8ebfbe65,Métro St-Laurent ( de Maisonneuve / St-Laurent),45.51074821798916,-73.56512099504471,24
0cc110260f90b08675fba8b904866c5c,Pierre-de-Coubertin / Aird,45.55903106539297,-73.54830354452133,19
7244dde4977180daca1765d2c6c82c1a,Porte de Québec / St-André,45.51329411414168,-73.55057805776596,23
268397f44e5cae3f431fc80129c14fd5,Laurier / St-Denis,45.52714838624861,-73.58947947621346,22
75029d868bd65133941f05b6d4fa2daf,Frontenac / Ste-Catherine,45.53006276144042,-73.54559183120728,19
20337f912d744698fe7062d1d17badb6,Garnier / Villeray,45.54948004519436,-73.61605471489383,19
42f4ffadab5c5dc4a7ee77a517fc7f44,Louis-Hémon / Rosemont,45.544500877623655,-73.58810484409332,19
b403b750b260047ba702ad1b98fae6ac,Parc des Vétérans (des Vétérans / Broadway),45.63147192165401,-73.50819479674101,11
b73710100fe1a3264b69eb01257177ec,Parc de l'Hôtel-de-Ville (Ste-Julie / Laurendeau),45.630686043767284,-73.4948467835784,19
02e0f09887bab2491c3cf2e6d0b477e4,Parc de Montréal-Est (Notre-Dame / David),45.61316323215739,-73.50989364087582,19
1f663a5fe8a59077b3b1acef1408dbf2,Centre récréatif Édouard-Rivet (Notre-Dame / Lesage),45.62846158049899,-73.49952153861523,15
0935ec87605094d4db1be8d4cfc4f73f,Mansfield / Ste-Catherine,45.50140664031126,-73.57165485620499,35
5e32fab9110f792cab5784b893f3a1af,Lanaudière / Jean-Talon,45.545350334193245,-73.61032962799072,23
b8fa3135508e1b6500591a38636be02e,St-Dominique / de Bellechasse,45.52952466565309,-73.60488876700401,31
f065f00d09ed459c5d9a0076383dc3e0,du Canal / McLaughlin,45.42969214118378,-73.6694884300232,23
444b2c83a68220fb68006e045ccc0604,Plessis / Logan,45.5218942750191,-73.55725058932876,19
3cbb64215b647b4779187f72b150a036,de Maisonneuve / Mansfield (sud-est),45.50229349416256,-73.5733064264059,23
55d65d7aebf43cb52ab73c81ed816d06,Parc J.-Arthur-Champagne (de Chambly / du Mont-Royal),45.551584,-73.561916,19
207a35d9de6603a273b94a33cc5e6fe0,Bloomfield / Bernard,45.520338193708305,-73.60775470733641,27
e39b2990521714e01d4fb710f8d264d8,de Laprairie / Centre,45.48059248038378,-73.56577813625336,15
462e77d533503e90f53675acf2f9ddcc,Clark / de l'Arcade,45.527371996141,-73.60398352146149,19
667794df885562752e3112b7c43ac609,Parc Lacharité (Latour / Forget),45.41773748108526,-73.62338548639853,19
5a1a7b87aa778fdd439fe21cc643e051,Sherbrooke / Jeanne-d'Arc,45.55398156058887,-73.55496388156098,27
95f3d2a11576645b02bba246ee638c70,de la Vérendrye / 75e avenue,45.42070552680549,-73.62966051438889,19
1ab036620d1ba6d8e205d99b44ef1a5b,Jogues / Allard,45.450020323797766,-73.60030621290207,19
325edfe3c45a789a37855388fb453463,St-Zotique / Clark,45.53143760098197,-73.61270070075989,15
5dd6f59bec1281b10376e79f7f4277b4,Prince-Arthur / du Parc,45.51044465753362,-73.5755842924118,35
fe77f880822f92a0a42808bd376e76b9,Prince-Arthur / St-Urbain,45.51262123436571,-73.5737282037735,27
1f75c2bd5876aa50df724147f470784c,de Côme / Jean-Talon,45.58830296569168,-73.57783721439773,15
9f4aab51faaec85da4c4b0cf710d0dd3,Boyer / St-Joseph,45.52937645940547,-73.5842552036047,19
4cc8089699bfd944c99c4fdef2e3c6ce,Robert-Bourassa / René-Lévesque,45.502182909901194,-73.56825381517409,33
5428d05f2757392646e8e88bfd1efee3,Aylmer / Sherbrooke,45.50629456823703,-73.57282698154448,27
4ddafa381fe8b555fe22b7fd44790eac,du Parc-La Fontaine / Roy,45.5232203879173,-73.56916093829568,19
532c02142d78a5864381ff420e87c1c4,Coloniale / Duluth,45.51786873150825,-73.57842743396758,15
d81961450801e6c7a09c6bc9d4ab8eda,Casgrain / Maguire,45.52621764749851,-73.5957657695144,15
9d4986e34f616f66ce0cec7824020c9b,Robin / St-André,45.51820643310249,-73.56161856654579,15
374dc4fabb37db40b8c3d8751fe4d033,St-Hubert / Laurier,45.52893724049854,-73.58786880970001,19
e61bdf615b9672bd815d52f210429d3c,Bennett / Ste-Catherine,45.55315915057821,-73.53263273835182,21
832860f26bd8716c883200eb861e3ab7,de Mortagne / de Montarville,45.59147977279279,-73.43605846166611,19
00c84f03ca5970eaa144ed6867d1e2b9,du Fort Saint-Louis / de la Perrière,45.613330089384625,-73.45154017210007,15
58bc069d3319c0c45a22b8a5c0ee3e81,de Mortagne / Jean-Neveu,45.56923752103412,-73.44949901103973,19
5678ed90f0af2bf60b25261bf16f6c70,Métro Papineau (Dorion / De Maisonneuve),45.5238445756922,-73.55236601831166,32
1972d2e57a368e7c442b2019e5db5461,Lamarre / Lavallée,45.53374770433337,-73.48599582910538,19
1b4e99760f4007a289ef12126349d2fe,Parc Laurier (Laurier / Dubuc),45.533610547532355,-73.47374618053436,19
e8b5baff8763847b5344ab445bfb73b7,Villeneuve / St-Laurent,45.521269382097486,-73.58956933021545,23
331c714130ef6e2ca0007f552ea7a77b,Villeneuve / du Parc,45.51801230878908,-73.59256982808802,15
0637583d2cd96bc5568da23bd700b198,Émile-Duployé / Sherbrooke,45.5278406266837,-73.56588721280787,23
faf37dc745f8802b34a0c53f2f55a079,Parc Olympique (Pie-IX / Sherbrooke),45.554824549823,-73.55370283126831,25
f046d7c00aae3ff92c702141f6475fe9,Crescent / de Maisonneuve,45.49812041247333,-73.57759594917297,23
05f141e61629ef218fc51a3f4969d489,St-Dominique / du Mont-Royal,45.52055948154798,-73.58582027256489,23
fb88f8d82067a1df86928727c6fadfc0,Hôpital Pierre-Boucher (Jacques-Cartier / Bourdon),45.536532102952236,-73.4576690196991,19
d807ba1927007377643362ea1dfab494,de la Montagne / Sherbrooke,45.500015468871446,-73.57938900589943,19
ec132b59e1a5fa45c604240a3c258eb6,Chambord / St-Joseph,45.53206384071709,-73.58226299285889,19
bd2fc7309def1255bf1611e25cd176f7,Parc Plage,45.50263299287665,-73.52748987080304,19
cd185bcb977059337ef71026ca9f75bf,Plymouth / Chem.Eden,45.506488823782234,-73.66047888994217,15
66bb98a5d35f74c7cc6f5951b7c78e4f,Parc Maisonneuve (Viau / Sherbrooke),45.56493679334249,-73.5555911064148,23
d4b0eb7bc61aae6326fe725d85da751d,Chambord / Beaubien,45.539900246044354,-73.59936207532883,23
81835dccb50d8900b00cc0a3ea1b480f,Duke / Nazareth,45.49572236030835,-73.55461344122887,15
644b526864832172e7ee3bf91f2e81ca,Wolfe / de la Gauchetière,45.51625372636654,-73.55291748050148,23
021186cc14acfe5a05a3d4b5cc35ff8a,McGill / Wellington,45.499447710650415,-73.55489909648894,31
2b9e2e02951cbf0f3386b55b303d7105,Parc Molson (d'Iberville / Beaubien),45.54902230455398,-73.59198164194822,19
07151bf35f8c11187f1e4e0c0311b250,de Bellechasse / de Lanaudière,45.539306918976,-73.59521873295307,19
cf435fa476bfc09c2ec8c86e9f2c22f6,Ellendale / de la Côte-des-Neiges,45.49966955063677,-73.62923383712769,31
f82178fd8ad9f5d2d51cbb079bf64818,Lincoln / du Fort,45.4930266623113,-73.58389592183812,15
47849d68770ba9af7b1aede61cfece02,St-Sylvestre / St-Charles,45.53638893500808,-73.51245582103729,23
4fe6b12b4792320f5835327e055c9a92,Gare LaSalle (Highlands),45.425612687757926,-73.65713578464238,19
56e9c5a84f7107e196266e678315d5e4,St-Hubert / René-Levesque,45.514369201445305,-73.55648696422577,19
b15109d9282a8fb0f2bf73265d357c8d,Durocher / Beaumont,45.52799772330074,-73.61919969320297,23
45ad8cdd0cfd3980316114c01dacee86,Tupper / du Fort,45.49122961531575,-73.58078241348267,15
2476230f8d661fdb5367ed2c2d41d4b1,Mozart / St-Laurent,45.53328624709234,-73.61546382309369,22
20f7dc366cab76a84531b65e16252f5b,Hôpital Santa Cabrini (de Pontoise / d'Évreux),45.58135403391153,-73.57260999085156,15
85f495db4bcf79e15029dcc21da9b2a7,Métro Mont-Royal (Utilités publiques / Rivard),45.52423612093815,-73.58155220746994,31
33b6493a0dd60c971f3d85382e35e7c6,Hochelaga / Chapleau,45.53431661378577,-73.55970561504364,19
16fb65f48b8435b23e10d3e232fd5f0c,Notre-Dame  / St-Martin,45.48830194643546,-73.56871783733366,19
be7eb9139288d63ecd637cbd4d52f05f,Théâtre du Vieux-Terrebonne (St-Pierre / des Braves),45.69223305604548,-73.63703128697125,19
fb645db9b2cdd11157289f2b2cdb539c,Parc St-Sacrement (des Seigneurs / St-Sacrement),45.70234934325735,-73.63957804443088,19
dc8a8b448fa7f1018b21065bee6f4b7e,Terminus de bus EXO (Côte de Terrebonne),45.697815037503666,-73.65406465532033,22
9c481b0d120d9a0bdf64bca192deb713,de Soissons / de Darlington,45.50689914049937,-73.623526096344,23
c55d42866bb42ee273386d8ecba46efd,des Écores / Beaubien,45.547536449579944,-73.59267264604568,19
44355d7e2e32e5cd2e215f64a5a44aa3,des Érables / Dandurand,45.541331760976774,-73.58387768268585,19
26aa0933324c9525e24f3b802787f507,des Érables / Rachel,45.533313304815366,-73.56671154499054,19
cc186df699fdcf0596ba8325ff9bfac6,Fullum / Gilford,45.53922374455291,-73.57383679656778,19
36062f17a7454e3f40f96283ff611cf5,CCI Outremont (Dollard / Ducharme),45.520019102391636,-73.61890733242035,15
882a16842469a73f4c033de3f0a99d40,de la Gauchetière / Robert-Bourassa,45.50064338023683,-73.5654079914093,27
7fb17e275b3e5006964621b39f5decbd,Jean-Talon / de l'Épée,45.527941351769826,-73.62388551235199,15
6ceb61dfee8f4b2579bf379a32e5cceb,20e avenue / de Bellechasse,45.559962552180544,-73.5769522190094,19
c054c5865bd34c60cbefb2e604b147a9,Garnier / Beaubien,45.541510228130996,-73.5984206199646,15
e16c272171145fcbfdd9915cd4a7fd5c,Boyer / Jean-Talon,45.54152678327907,-73.61248868051915,23
5fe27f765b1c3a37dd8b9f9e155ebfff,Aylwin / Ontario,45.54428297135084,-73.54544162750244,27
8d0fb7bb1314e8606221b40cf9608194,Notre-Dame / McGill,45.501023131616485,-73.55944812297821,19
85c697a6f2803497cabda74c8a7d06f1,Métro Place Saint-Henri (St-Ferdinand / St-Jacques),45.47728092665489,-73.58730420470238,27
d63041391198f1496b84b02d71a3ed90,St-Rémi / Ste-Émilie,45.46976497412213,-73.58923405408859,27
c4ab40e07da1c28d750a9d49015a9a23,Drummond / Sherbrooke,45.50057346904464,-73.57825040817261,23
b30f2d1a277142c9960048d1b4d41ccd,des Érables / Laurier,45.53852599499357,-73.57773274183273,15
211d7569d9cc6e11c0928da13e279586,Clark / Rachel,45.51736881196649,-73.58209669589996,31
9104897455b1a137d3c16525dc4aa503,Northcliffe / Notre-Dame-de-Grâce,45.47781599566346,-73.61503422260284,15
10ed62c1896dfd6c7c180f356d2f87a2,Clark / de Liège,45.5399716347916,-73.638114631176,19
4863e13ad31f9c44326032df3c09519b,du Marché Central / Crémazie,45.53341740599902,-73.64888370037079,15
eb1ae7d3b1ac967366e29b26d658164e,McKenna / Édouard-Montpetit,45.50116506773693,-73.62054750323296,19
2de477065bed58974606e104a8906429,LaSalle / 37e avenue,45.416294661505354,-73.6129005253315,19
f3e045cfad9852a12ed3a7899997b5a9,Place Valois (Valois / Ontario),45.54714142711512,-73.54339510202408,19
1878135d03fa93303d3301dc9bac05cf,Sewell / Roy,45.51467743947122,-73.57659816741943,19
da6c8fd333aec163e9573a5d46910a3b,Guy / Notre-Dame,45.49003938678748,-73.56714338064194,23
f2ceabcf431e79ae367e832282b28e0d,Basile-Routhier / Chabanel,45.549846830745,-73.64767402410507,19
a84281bfbdcca2e4d26eee6578dedfe5,St-Denis / de Maisonneuve,45.51433912935237,-73.56168508529663,26
352d6c6589d10485af73efe4b2df8660,Métro St-Michel (Shaughnessy / St-Michel),45.55897660298603,-73.59951764345168,15
bf23c6acb2ce3ec7d640f90e66509363,Jacques-Casault / Christophe-Colomb,45.55195050985087,-73.63022357225418,19
f07d83b19d7555633ed07b8705e1439c,Cartier / Marie-Anne,45.53280412806031,-73.57190161943436,27
8569736c023d7713fa1054b1dc71a704,St-Grégoire / Christophe-Colomb,45.53255611409675,-73.58993947505951,23
1a11ca01080b3943e96b88689e392425,St-Patrick / Briand,45.46339729163665,-73.59643578529356,17
361c07342018910b5bf0c731e7a67162,St-Marc / Sherbrooke,45.49444855920154,-73.58337610960007,15
9af471a77a41e1bdde69ab0533d721ec,6e Avenue / Bélanger,45.554582815249745,-73.59631910920143,19
7a656eb406afce1faa73c89dd333cb9a,de Bordeaux / St-Zotique,45.546534315701145,-73.59866335988045,19
035fbcc70443fb2154ea43d568f054d5,Parc Villeray (Christophe-Colomb / Jarry),45.54811499296316,-73.62433344125746,15
388667308b5ef2108146c41196454cf2,de Chateaubriand / Jarry,45.54588672296563,-73.62673670053482,15
f6f620ef83bbb9c0e42133ca15de895b,St-Antoine / de la Montagne,45.495369835210354,-73.56859177350998,19
7deaa6511276ea56c7a8b337c6f3f64f,Duvernay / Charlevoix,45.482097305112845,-73.57487753033638,19
45c95a8a8c3d7574b79365d50c47627a,Saint-Rémi / Valois,45.583961790351886,-73.72082591056824,23
be81ff208d6924d4baa6817fb7771d35,St-André / Ste-Catherine,45.516297540849614,-73.55801045894623,27
27d15259e510a3244e9fe699b176e08d,St-Dominique / Gounod,45.53859480227864,-73.62781092524529,15
2b8935ad1e1e76e1c7e48a88a635488c,Fairmount / Hutchison,45.51962428783392,-73.5983119904995,23
061c0353daef32e37a1ac99b23494209,Murray / Wellington,45.49225247724067,-73.55850666761398,27
74add4f9a075f9ea65c2ff5cf52217c3,Hamel / Sauvé,45.56099656248322,-73.65141034126282,19
6d4d1b4bf1bb36d1af4c681a0a50c41d,Métro de Castelnau (de Castelnau / St-Laurent),45.53552563367942,-73.61981123685837,23
e42fa53d566dd28d5149a8ffd425ee2f,Émile / 7e Avenue,45.56347239088534,-73.69302749633789,15
b7664c29e84839606e88152819b3ce55,Faillon / St-Denis,45.539890852781404,-73.62026989459991,23
5457af150071eaabeeaae9a5bfd12fe5,Dollard / Van Horne,45.51887607468706,-73.6161071062088,19
e1699a210e0244f03c998754cd235e49,de la Montagne / Ste-Catherine,45.49774064151583,-73.57484936714172,35
2c04df8c30304c1e0a3da228ce8d50ad,Boyer /Laurier,45.530370913497194,-73.58651027083397,23
5c55fcbf1c23ea60f7b481b9c977f5c7,Dorion / Rachel,45.531597868052245,-73.56829941272736,19
1e35b33de4e369aeedcdd6de0f62c2cb,St-Urbain / Laurier,45.52164617544124,-73.59366774559021,19
9ae44308b0fc72776b463bce99473ace,Laurier / de Bordeaux,45.53725128371284,-73.57918381690979,27
be9c873b6a7a17a56d9b813b70e29367,Jean-Paul-Vincent / Adoncour,45.5646764291021,-73.47957750896057,15
5d9239bc34108ada8bac98a19e0b3371,Fernand-Lafontaine / Adoncour,45.5512193,-73.483912,15
7137a250bd6bd7df717f83d133ac328d,Lebrun / Bédard,45.5470644513283,-73.45196210302673,15
af74c93fbc64f9a6aad9b05ab410b0ac,Industriel / Louis-J.-Lafortune,45.58190955549507,-73.45529912039638,19
ae879e0ebd76a6a27ee078846f565a59,Métro Angrignon (Lamont / des Trinitaires),45.44650450192042,-73.6025619506836,23
7ef59373a23489859a9cd1dda66e9705,St-Antoine / St-François-Xavier,45.50460620417374,-73.55926036834717,18
f59eec67d9ea78b9c6647a3e86f0e496,Jeanne-Mance / Fairmount,45.52098373159662,-73.59728068113326,19
7b6ba8570547c023970ad84e989b452a,Metcalfe / du Square-Dorchester,45.499898909703695,-73.57048809528351,31
6b17e4dc2ab5fce81cada468591bde1b,Léa-Roback / Sir-Georges-Etienne-Cartier,45.471703687608354,-73.58268946409225,34
92a8e6a785a7b114a5d17e9979986d96,Clark / Laurier,45.52256269005034,-73.5934665799141,19
d4c46f46fe1cf2b5c0ee3c5f9a94393e,Montcalm / Ontario,45.52118387502727,-73.56244146823883,27
a73edfff31236331bf0713d675ab01bd,Laurier / de Brébeuf,45.532449016819825,-73.5847695171833,31
5303e59a2966767d59e3ab3df6aa967e,Sanguinet / de Maisonneuve,45.51340553558378,-73.56259435415267,31
afaaac9e7a0c213eb40f66cc5763f1a2,Alexandre-DeSève / Ste-Catherine,45.5211613236904,-73.55358481407166,19
c7c82cf193fdc50ec1a106c90cb51544,Masson / Molson,45.54434593245247,-73.57697686180472,19
ab0b03067abaea4ab4cfac4b287fa759,Parc Loyola (Doherty / Somerled),45.45964243432704,-73.6445640027523,19
531dfca0ea4152da1c5e60b7fa74ba1c,Molson / Wiliam-Tremblay,45.541602844435374,-73.56496073305605,29
cf46557eb890581a5631cafc7b9a2bba,Roy / St-André,45.521564270906616,-73.57036739587784,23
4249917b3ff262f4cd831f8ea34cf74e,Atwater / Sherbrooke,45.4912258547597,-73.58763009309769,23
7b28024fd4c90ded38fc0447771d1ca4,Ste-Catherine / Bishop,45.49658063218649,-73.5762146115303,19
7c116c44d814279d54202eeec81ddddb,Métro Lucien-L'Allier  (Lucien l'Allier / Argyle),45.49487159597493,-73.57112377882004,17
0bfb7384b255c89b94b68ee5f227a792,Carrefour Angrignon (Angrignon / Newman),45.44843408492706,-73.6129454523325,17
6c956ee33047a4618e258500a6d71629,Mackay / Ste-Catherine,45.495774063803815,-73.57687845826149,27
f05dc5b7b3635787d9fe3fd8565bee7a,Ste-Catherine / Towers,45.49228068089086,-73.58096480369566,23
3e138c9acff07bff5f9e684c01bc564f,Viger / Chenneville,45.50531166520915,-73.56089115142822,34
e2cf66a0da3c867233306941853190b4,de l'Hôtel-de-Ville / Viger,45.509556992257025,-73.55740696191788,19
b7cba32464d6cb13da608f87ab478364,Boucher / St-Denis,45.52809167572668,-73.59169095754623,23
e3d44573814d1cd5b4971bde6b22a70d,Poupart / Logan,45.53012288880358,-73.54941129684448,19
fb9e4ff1597cd9c7cec37a51d5f2bf2c,Métro Viau ( Pierre-de-Coubertin / Viau),45.56221872617909,-73.54626774787903,47
420d9c027c261cae251568f7f8d5a9cc,Stanley / René-Lévesque,45.49790394592446,-73.57077571808077,39
9e9b183acee751ed5cfa1d04cd97ec8e,Gilford / St-Denis,45.52497612960628,-73.58558893203735,39
488b08ff450837d27743c7bcd6c8a058,Place d'Youville / McGill,45.49996470926352,-73.55615437030792,19
fc4597100fabd406f272f69eba793b4a,St-Urbain / René-Lévesque,45.507837541505836,-73.56313616037369,33
014e10dba2d92bd20c826b88864dc6b6,de Maisonneuve / Aylmer (ouest),45.505173440423306,-73.5706517100334,37
3927bde7b8a85d0f3f18369211619cc2,Métro Fabre (Fabre / Jean-Talon),45.54667895468375,-73.60795050859451,15
effc0e8a755af1da00354c216d4e2969,des Pins / Hutchison,45.51092810380621,-73.5781578719616,22
8ae106c7b71f9c4a8f753c79cbe1603f,de Maisonneuve / Aylmer (est),45.50538591756765,-73.5704317688942,21
eb7e9395b5cf79e23a4e2b51199de035,Hickson / Wellington,45.46487135471258,-73.56701731681824,27
3bd3e964550c7d87d203a8957569907c,3e avenue / Wellington,45.457289220778065,-73.5672801733017,19
ff381d35dee2c29069bf1044c4a5a0c4,Rielle / Wellington,45.460155859306866,-73.56700122356415,23
12d398be5955fed8787b107d04ba8cab,CÉGEP du Vieux-Montréal (Ontario / de l'Hôtel-de-Ville),45.51401222645779,-73.56598667800426,15
cf8b3b1e14a33a9204cbf9e889a7b613,Georges-Vanier / Notre-Dame,45.485047979822774,-73.5719633102417,19
353cde491172cf1f6f0e038c29f9ca2b,Métro Joliette  (Hochelaga / Joliette),45.54699194653282,-73.55115339159964,29
85ae63e650e620f403ad900a2f1659ac,Bassin olympique (Chemin du Chenal le Moyne),45.5169025120042,-73.52724552154541,19
f7b1f88c4f4e3231537dd0a5a7397287,Ottawa / du Séminaire,45.4912954250061,-73.56159925460815,23
83d07a416ce0edf43f1cda66480ea525,Parc Sauvé (Balzac / de Bayonne),45.598880374710674,-73.63657951360437,15
ce07562033e4ecc1a2ed18864bc3e612,des Récollets / Martial,45.590916779468024,-73.64067547023296,19
76b8bcb72896027cc8fd534aa1006c24,7e avenue / Jean-Rivard,45.56360595385142,-73.61588582396507,23
b7ea33e5396a99849c76067836da7f21,Parc Jeanne-Mance (monument sir George-Étienne-Cartier),45.51487490356938,-73.58486406505108,43
6a842356c5017c283342c979fe0cdc92,City Councillors / du President-Kennedy,45.50625103256782,-73.57139065861702,31
475d62511878b5d637d016d15cf41bd2,Clark / Ontario,45.51059890498207,-73.56692545115948,19
2eea55e025c4f7318cefd7a712b3ae61,Ste-Émilie / Sir-Georges-Etienne-Cartier,45.472636238971525,-73.58546018600464,23
c0bf44a23aa9fdfd893bd437866dbf2a,Parc St-Henri (Laporte / Guay),45.4801160762769,-73.58560770750046,15
508a89286045d9bc7e8188522a328f63,de Maisonneuve / Mansfield (nord),45.502386079583346,-73.57333794236183,19
24d6cf55dd9c36caa1aac57ea06d80d7,de Maisonneuve / Mansfield (sud),45.502053864057466,-73.57346534729004,27
c1c34fa6da2a69d5ff8e4d897019dd84,Parc de la Louisiane (31e avenue / de Bellechasse),45.56658768199731,-73.57160925865173,19
d91563f1329dacd26318b07d7242afdf,HEC (Decelles / Jean-Brillant),45.497722829899764,-73.61925333738327,25
d1c5df1e255b5babc511fd7d2cf91997,Milton / St-Laurent,45.512903912221326,-73.57059180741999,21
4dfba1c78f4c98769c58749cb8f10472,McTavish / Sherbrooke,45.50277615861811,-73.57589408755302,46
a852e0e24a7b42bd4fe12fdda2802115,6917 Parc Henri-Julien (St-Denis / Legendre),45.547299771025074,-73.64587426185608,19
f13c88a17248057a9e3c166561db2009,Édouard-Montpetit / de Stirling,45.507422884736656,-73.61485183238983,27
417d99d0e975d8e305791aa22cc04e1d,Christophe-Colomb / Gilford,45.52970275925261,-73.58288526535034,23
a8dca6a7c9f8451b38af2eee446736df,Jeanne-Mance / René-Lévesque,45.5063713381299,-73.5642009973526,58
83bbac92b5b47304d407bbaabdf7bb7c,Parc St-Gabriel (Grand Trunk / Ropery),45.4793397449184,-73.56434315443039,19
985609ec8d0799651f3d5db61e1dc9b5,Bishop / René-Lévesque,45.49531907141446,-73.57386231422424,31
21a2faa2030e136896fc22dcbb613e52,de Bleury / de Maisonneuve,45.50710632433956,-73.56861054897308,21
ee6ad7e94cd47718c9f03d9248357f5c,Parc Wilfrid-Bastien (Lacordaire / des Galets),45.5864002,-73.5952181,19
4aead5b6002007d40c34c9a53ffecbdf,Ste-Catherine / Drummond,45.498488900657,-73.57436656951904,27
ab805e600b1bea0b4e5a7f15ea118b0b,Ste-Catherine / Drummond S/E,45.498669853792904,-73.57423916459084,35
2abd5701b3cd18cf76c3f69aa9e3503b,Marquette / Gillford,45.533814961538,-73.57890486717224,15
17be2f8f5808ea2980f56a1a19273084,Ste-Catherine / St-Laurent,45.50991130818593,-73.56380604207516,31
1dd2c41ba0060546b80e05d4874c3acc,Queen / Wellington,45.49760527699099,-73.55534970760345,43
cb1d736547a9e93d8e3427b1f232a0f9,Cathcart / McGill College,45.501187681489775,-73.57045487814501,27
326615f796f68a086a7460d4f41ae806,de la Montagne / Notre-Dame,45.492913379064625,-73.5646878182888,23
6d0a3c1b3a79bb42f1125970e00cd5b1,Parc du Pélican (1ere Ave / Masson),45.54518840394769,-73.57644259929657,39
f41284edefadec3a283da4975ea0fcd7,Parc Jean-Drapeau (Chemin Macdonald),45.51321159047488,-73.53311714531628,27
